geo_id,year,deped_id,total_teacher_male,total_teacher_female,total_teachers,total_student_male,total_student_female,total_student_enrollment,geo_id,deped_id,school_name,address,adm0,adm1,adm2,adm3,latitude,longitude,geom
TAN-000006,2021,EM.3409,5,8,13,180,214,394,TAN-000006,EM.3409,SASI,,TZA,Arusha,Arusha,Bangata,-3.365109643,36.74510779,0101000020E6100000BD052BB15F5F4240271DC19ABEEB0AC0
TAN-000000,2021,EM.1865,3,10,13,248,193,441,TAN-000000,EM.1865,BANGATA,,TZA,Arusha,Arusha,Bangata,-3.338421019,36.74399954,0101000020E6100000FF447E603B5F42406C12471416B50AC0
TAN-000003,2021,EM.4582,2,8,10,247,241,488,TAN-000003,EM.4582,MIDAWE,,TZA,Arusha,Arusha,Bangata,-3.332989554,36.74861731,0101000020E6100000B2D527B1D25F42408EB7626DF6A90AC0
TAN-018512,2021,EM.2699,8,2,10,242,283,525,TAN-018512,EM.2699,PITO,,TZA,,,,-8.929461485,31.63646933,0101000020E6100000CD416DA7EFA23F40E5EE3160E2DB21C0
TAN-000009,2021,EM.4030,4,2,6,193,209,402,TAN-000009,EM.4030,BWAWANI,,TZA,Arusha,Arusha,Bwawani,-3.607894651,36.84478314,0101000020E61000008F419BDA216C4240ABAAEBDEF7DC0CC0
TAN-000012,2021,EM.11343,5,14,19,696,768,1464,TAN-000012,EM.11343,BWAWANI,,TZA,Arusha,Arusha,Bwawani,-3.607894651,36.84478314,0101000020E61000008F419BDA216C4240ABAAEBDEF7DC0CC0
TAN-000015,2021,EM.18772,0,4,4,244,252,496,TAN-000015,EM.18772,BWAWANI,,TZA,Arusha,Arusha,Bwawani,-3.607894651,36.84478314,0101000020E61000008F419BDA216C4240ABAAEBDEF7DC0CC0
TAN-000018,2021,EM.4032,6,3,9,166,178,344,TAN-000018,EM.4032,KIGONGONI,,TZA,Arusha,Arusha,Bwawani,-3.536971065,36.77969169,0101000020E6100000A9C1F2EFCC6342401996587CB74B0CC0
TAN-000021,2021,EM.11082,4,5,9,319,329,648,TAN-000021,EM.11082,LAMOLOKI,,TZA,Arusha,Arusha,Bwawani,-3.58017525,36.8328811,0101000020E61000006FFA0ED99B6A4240C896E5EB32A40CC0
TAN-000024,2021,EM.5790,5,5,10,267,310,577,TAN-000024,EM.5790,MUNGUSHI,,TZA,Arusha,Arusha,Bwawani,-3.529985356,36.83414089,0101000020E61000003667F120C56A424006085BF6683D0CC0
TAN-000027,2021,EM.2012,3,3,6,52,63,115,TAN-000027,EM.2012,OLOKII,,TZA,Arusha,Arusha,Bwawani,-3.589697902,36.81145294,0101000020E610000083C59FB0DD674240E6E09C88B3B70CC0
TAN-000030,2021,EM.13504,7,7,14,59,62,121,TAN-000030,EM.13504,ALBEHIJE,,TZA,Arusha,Arusha,Kiranyi,-3.352888,36.671719,0101000020E6100000098D60E3FA554240F03499F1B6D20AC0
TAN-000033,2021,EM.7602,1,17,18,382,419,801,TAN-000033,EM.7602,ENYUATA,,TZA,Arusha,Arusha,Kiranyi,-3.352888,36.671719,0101000020E6100000098D60E3FA554240F03499F1B6D20AC0
TAN-000036,2021,EM.10716,1,15,16,343,378,721,TAN-000036,EM.10716,ILKIUREI,,TZA,Arusha,Arusha,Kiranyi,-3.354763761,36.67412596,0101000020E6100000D4CA6BC2495642405E68FA618ED60AC0
TAN-000039,2021,EM.13029,2,16,18,327,235,562,TAN-000039,EM.13029,KIRANYI,,TZA,Arusha,Arusha,Kiranyi,-3.352888,36.671719,0101000020E6100000098D60E3FA554240F03499F1B6D20AC0
TAN-000042,2021,EM.7604,3,12,15,332,350,682,TAN-000042,EM.7604,NATEMA,,TZA,Arusha,Arusha,Olorieni,-3.329539931,36.6726563,0101000020E610000064F9049A1956424001F8D2D4E5A20AC0
TAN-000045,2021,EM.3408,1,20,21,513,504,1017,TAN-000045,EM.3408,OLCHOKI,,TZA,Arusha,Arusha,Olorieni,-3.339634156,36.67141831,0101000020E61000005BB10109F15542401AFFC41C92B70AC0
TAN-000048,2021,EM.735,1,11,12,338,357,695,TAN-000048,EM.735,KISONGO,,TZA,Arusha,Arusha,Ilkiding'a,-3.317009675,36.69511761,0101000020E61000006EE9249DF9584240ED1F555E3C890AC0
TAN-000051,2021,EM.4578,1,10,11,170,182,352,TAN-000051,EM.4578,LESIRAA,,TZA,Arusha,Arusha,Kisongo,-3.397378302,36.50537781,0101000020E61000007C095738B040424010D7D9ACD42D0BC0
TAN-000054,2021,EM.14311,12,15,27,250,276,526,TAN-000054,EM.14311,YAKINI,,TZA,Arusha,Arusha,Kisongo,-3.379835,36.524137,0101000020E6100000D1CFD4EB164342406002B7EEE6090BC0
TAN-000057,2021,EM.3022,9,4,13,283,371,654,TAN-000057,EM.3022,LEMUGUR,,TZA,Arusha,Monduli,Moita,-3.431959762,36.56140491,0101000020E6100000C521B81DDC474240D4D2D751A7740BC0
TAN-000060,2021,EM.2011,2,12,14,273,279,552,TAN-000060,EM.2011,KISERIAN,,TZA,Arusha,Arusha,Mlangarini,-3.449549452,36.74017041,0101000020E61000005D356CE7BD5E4240A1321262AD980BC0
TAN-000063,2021,EM.6944,4,6,10,264,242,506,TAN-000063,EM.6944,MANYIRE,,TZA,Arusha,Arusha,Mlangarini,-3.454369582,36.80627208,0101000020E610000092A36BEC33674240C4E5F7848CA20BC0
TAN-000066,2021,EM.4035,3,9,12,320,303,623,TAN-000066,EM.4035,MLANGARINI,,TZA,Arusha,Arusha,Mlangarini,-3.447273332,36.78700034,0101000020E6100000D51E596DBC644240EC806A0A04940BC0
TAN-000069,2021,EM.9230,3,8,11,240,222,462,TAN-000069,EM.9230,MUUNGANO,,TZA,Arusha,Arusha,Mlangarini,-3.482433927,36.73523441,0101000020E610000003EC40291C5E42401B91975106DC0BC0
TAN-000072,2021,EM.11560,2,20,22,307,275,582,TAN-000072,EM.11560,OLOMITU,,TZA,Arusha,Arusha,Mlangarini,-3.41310573,36.75784252,0101000020E61000008875D3FB00614240241F81600A4E0BC0
TAN-000075,2021,EM.14966,8,5,13,115,100,215,TAN-000075,EM.14966,GOODWILL,,TZA,Arusha,Arusha,Moivo,-3.35192,36.692117,0101000020E6100000B900344A975842407077D66EBBD00AC0
TAN-000078,2021,EM.13030,4,12,16,339,386,725,TAN-000078,EM.13030,MOIVO,,TZA,Arusha,Arusha,Moivo,-3.350251292,36.70392709,0101000020E6100000C3286B481A5A4240892CA48C50CD0AC0
TAN-000081,2021,EM.4034,4,4,8,256,236,492,TAN-000081,EM.4034,LIKAMBA,,TZA,Arusha,Arusha,Mussa,-3.314554656,36.57237282,0101000020E61000007882378343494240A398423B35840AC0
TAN-000084,2021,EM.14568,9,3,12,71,111,182,TAN-000084,EM.14568,LIKAMBA INTEGRITY,,TZA,Arusha,Arusha,Moivo,-3.343437093,36.68660817,0101000020E610000080A8C9C6E2574240B35855F25BBF0AC0
TAN-000086,2021,EM.1172,4,4,8,260,287,547,TAN-000086,EM.1172,MUSA,,TZA,Arusha,Arusha,Mussa,-3.325672976,36.52186485,0101000020E61000004AD7A777CC42424050E3E86EFA9A0AC0
TAN-000089,2021,EM.1562,1,5,6,119,121,240,TAN-000089,EM.1562,NENGUNGU,,TZA,Arusha,Arusha,Moivo,-3.343437093,36.68660817,0101000020E610000080A8C9C6E2574240B35855F25BBF0AC0
TAN-000092,2021,EM.4584,8,3,11,398,433,831,TAN-000092,EM.4584,OLCHOROVUS,,TZA,Arusha,Arusha,Mussa,-3.298987965,36.52781272,0101000020E61000000A68015E8F434240AB945CCD53640AC0
TAN-000095,2021,EM.4581,3,3,6,181,159,340,TAN-000095,EM.4581,MARURANI,,TZA,Arusha,Arusha,Nduruma,-3.493588,36.813139,0101000020E6100000130D52F0146842409A95ED43DEF20BC0
TAN-000098,2021,EM.13506,2,5,7,167,159,326,TAN-000098,EM.13506,MSHIKAMANO,,TZA,Arusha,Arusha,Nduruma,-3.480512401,36.81322025,0101000020E6100000F418E5991768424083F0BCE216D80BC0
TAN-000100,2021,EM.7603,3,7,10,268,300,568,TAN-000100,EM.7603,MZIMUNI,,TZA,Arusha,Arusha,Nduruma,-3.505067,36.80590294,0101000020E61000006F86D9D327674240874F3A91600A0CC0
TAN-000103,2021,EM.1173,7,8,15,254,245,499,TAN-000103,EM.1173,NDURUMA,,TZA,Arusha,Arusha,Nduruma,-3.474652475,36.79310841,0101000020E6100000F8908D938465424042B9C89816CC0BC0
TAN-000106,2021,EM.11559,5,2,7,145,159,304,TAN-000106,EM.11559,OLDENDERETI,,TZA,Arusha,Arusha,Nduruma,-3.505499178,36.77842571,0101000020E610000065682374A3634240AE512D27430B0CC0
TAN-000109,2021,EM.11562,5,2,7,225,193,418,TAN-000109,EM.11562,UMOJA,,TZA,Arusha,Arusha,Nduruma,-3.515313424,36.85399564,0101000020E6100000015DA8BA4F6D42408328FAA45C1F0CC0
TAN-000112,2021,EM.2600,6,13,19,508,704,1212,TAN-000112,EM.2600,OLDONYOSAMBU,,TZA,Arusha,Ngorongoro,Pinyinyi,-2.212404036,35.80490753,0101000020E6100000BBD3BE3507E741406B4421E300B301C0
TAN-000115,2021,EM.2348,5,1,6,239,295,534,TAN-000115,EM.2348,OLDONYOSAMBU,,TZA,Arusha,Ngorongoro,Pinyinyi,-2.212404036,35.80490753,0101000020E6100000BBD3BE3507E741406B4421E300B301C0
TAN-000118,2021,EM.6945,2,9,11,263,340,603,TAN-000118,EM.6945,MBUYUNI,,TZA,Arusha,Arusha,Oljoro,-3.565600437,36.65584366,0101000020E6100000967E5FAFF25342407F259C8559860CC0
TAN-000121,2021,EM.6946,5,3,8,398,390,788,TAN-000121,EM.6946,MIRONGOINE,,TZA,Arusha,Arusha Urban,Olasiti,-3.405534203,36.60603957,0101000020E6100000AF9D62B4924D4240FC5A5AB7883E0BC0
TAN-000124,2021,EM.3023,3,4,7,253,250,503,TAN-000124,EM.3023,OLJORO,,TZA,Arusha,Arusha,Oljoro,-3.590043545,36.68790039,0101000020E610000053FAB61E0D5842405FED07C068B80CC0
TAN-000127,2021,EM.9231,2,5,7,94,64,158,TAN-000127,EM.9231,SITTI MWINYI,,TZA,Arusha,Arusha,Oljoro,-3.573593,36.660859,0101000020E610000036221807975442405AB741EDB7960CC0
TAN-000128,2021,EM.6937,2,15,17,524,452,976,TAN-000128,EM.6937,EMAOI,,TZA,Arusha,Arusha,Olmotonyi,-3.308792324,36.64896928,0101000020E6100000B6DAE46C11534240CBAF261C68780AC0
TAN-000131,2021,EM.2210,2,9,11,273,312,585,TAN-000131,EM.2210,OLMOTONYI,,TZA,Arusha,Arusha,Olmotonyi,-3.291175584,36.65706025,0101000020E610000034A0DE8C1A544240BD6355DD53540AC0
TAN-000134,2021,EM.991,1,12,13,250,297,547,TAN-000134,EM.991,OLTUROTO,,TZA,Arusha,Arusha,Moivo,-3.343437093,36.68660817,0101000020E610000080A8C9C6E2574240B35855F25BBF0AC0
TAN-000137,2021,EM.11557,2,14,16,402,398,800,TAN-000137,EM.11557,EKENYWA,,TZA,Arusha,Arusha,Oltrumet,-3.295716087,36.62022865,0101000020E610000068E503A7634F42405B875465A05D0AC0
TAN-000140,2021,EM.13507,12,7,19,148,139,287,TAN-000140,EM.13507,NEW VISION,,TZA,Arusha,Arusha,Moivo,-3.343437093,36.68660817,0101000020E610000080A8C9C6E2574240B35855F25BBF0AC0
TAN-000143,2021,EM.7605,5,26,31,534,571,1105,TAN-000143,EM.7605,NGARAMTONI,,TZA,Arusha,Arusha,Oltrumet,-3.310238002,36.63734556,0101000020E6100000B439108A94514240F487C40F5E7B0AC0
TAN-000146,2021,EM.2856,1,11,12,446,540,986,TAN-000146,EM.2856,SAMBASHA,,TZA,Arusha,Arusha,Olmotonyi,-3.296502471,36.66969344,0101000020E6100000A892BF83B8554240880601B03C5F0AC0
TAN-000149,2021,EM.11084,8,8,16,564,626,1190,TAN-000149,EM.11084,TIMBOLO,,TZA,Arusha,Arusha,Olmotonyi,-3.297867221,36.66960032,0101000020E610000044E59976B555424097F6A53508620AC0
TAN-000152,2021,EM.8200,9,38,47,1053,1080,2133,TAN-000152,EM.8200,BARAA,,TZA,Arusha,Arusha Urban,Baraa,-3.389402299,36.7383232,0101000020E610000065F0E65F815E4240A789D9F37E1D0BC0
TAN-000155,2021,EM.14320,12,15,27,228,255,483,TAN-000155,EM.14320,UHURU PEAK,,TZA,Arusha,Arusha Urban,Baraa,-3.370713675,36.73701719,0101000020E6100000E6D14B94565E4240967032BB38F70AC0
TAN-000158,2021,EM.13034,7,5,12,110,100,210,TAN-000158,EM.13034,ENALEPO,,TZA,Arusha,Arusha Urban,Sokoni I,-3.433151718,36.67371797,0101000020E610000052F0F3633C5642403521783F18770BC0
TAN-000161,2021,EM.10890,4,5,9,61,53,114,TAN-000161,EM.10890,ARUSHA MODERN,,TZA,Arusha,Arusha Urban,Elerai,-3.367749,36.662811,0101000020E6100000EB36A8FDD6544240F817416326F10AC0
TAN-000164,2021,EM.14314,2,12,14,346,340,686,TAN-000164,EM.14314,AZIMIO,,TZA,Arusha,Arusha Urban,Elerai,-3.365303837,36.66281265,0101000020E610000003907F0BD75442408225086B24EC0AC0
TAN-000167,2021,EM.2013,5,14,19,455,492,947,TAN-000167,EM.2013,BURKA,,TZA,Arusha,Arusha Urban,Elerai,-3.364765402,36.66069119,0101000020E610000015E7668791544240196B821F0AEB0AC0
TAN-000170,2021,EM.11086,5,30,35,912,849,1761,TAN-000170,EM.11086,ELERAI,,TZA,Arusha,Arusha Urban,Elerai,-3.37245214,36.65827125,0101000020E6100000D252793B4254424070000530C8FA0AC0
TAN-000173,2021,EM.12383,4,5,9,76,87,163,TAN-000173,EM.12383,MOUNT MERU,,TZA,Arusha,Arusha Urban,Moshono,-3.443944,36.713439,0101000020E610000071581AF8515B42401C0B0A83328D0BC0
TAN-000176,2021,EM.13511,12,8,20,291,271,562,TAN-000176,EM.13511,NALOPA,,TZA,Arusha,Arusha Urban,Engutoto,-3.446360719,36.71099546,0101000020E6100000F92634E6015B4240A597929125920BC0
TAN-000179,2021,EM.12385,9,7,16,119,134,253,TAN-000179,EM.12385,TUISHIME,,TZA,Arusha,Arusha Urban,Engutoto,-3.420074259,36.70772071,0101000020E610000071139C97965A4240195FA2E44F5C0BC0
TAN-000182,2021,EM.1563,6,31,37,501,523,1024,TAN-000182,EM.1563,KALOLENI,,TZA,Arusha,Arusha Urban,Kaloleni,-3.367503039,36.69034045,0101000020E61000008FED6B135D584240227CED6EA5F00AC0
TAN-000188,2021,EM.4837,2,24,26,372,435,807,TAN-000188,EM.4837,KALOLENI,,TZA,Arusha,Arusha Urban,Kaloleni,-3.367503039,36.69034045,0101000020E61000008FED6B135D584240227CED6EA5F00AC0
TAN-000194,2021,EM.6152,8,17,25,675,681,1356,TAN-000194,EM.6152,KALOLENI,,TZA,Arusha,Arusha Urban,Kaloleni,-3.367503039,36.69034045,0101000020E61000008FED6B135D584240227CED6EA5F00AC0
TAN-000200,2021,EM.13036,6,16,22,399,360,759,TAN-000200,EM.13036,MAKUMBUSHO,,TZA,Arusha,Arusha Urban,Kaloleni,-3.366906554,36.69039582,0101000020E6100000F918E6E35E584240C8F110B46CEF0AC0
TAN-000203,2021,EM.295,3,31,34,656,675,1331,TAN-000203,EM.295,UHURU,,TZA,Arusha,Arusha Urban,Kati,-3.374163,36.688256,0101000020E61000004DA3C9C51858424069FCC22B49FE0AC0
TAN-000206,2021,EM.1564,4,15,19,522,538,1060,TAN-000206,EM.1564,KIMANDOLU,,TZA,Arusha,Arusha Urban,Kimandolu,-3.373007391,36.71670983,0101000020E61000002E49D025BD5B42401C178C4CEBFB0AC0
TAN-000209,2021,EM.13888,8,2,10,133,143,276,TAN-000209,EM.13888,LADY OF MERCY,,TZA,Arusha,Arusha Urban,Kimandolu,-3.375096,36.718853,0101000020E6100000D5D00660035C424022E2E65432000BC0
TAN-000211,2021,EM.5792,7,15,22,615,619,1234,TAN-000211,EM.5792,LEMARA,,TZA,Arusha,Arusha Urban,Lemara,-3.40196676,36.69601578,0101000020E6100000CB4C8A0B175942408F3B42593A370BC0
TAN-000214,2021,EM.11566,6,7,13,118,108,226,TAN-000214,EM.11566,NOTRE DAME,,TZA,Arusha,Arusha Urban,Lemara,-3.417685,36.698958,0101000020E610000087A3AB7477594240F33CB83B6B570BC0
TAN-000217,2021,EM.12384,13,14,27,299,338,637,TAN-000217,EM.12384,SHALOM,,TZA,Arusha,Arusha Urban,Lemara,-3.417685,36.698958,0101000020E610000087A3AB7477594240F33CB83B6B570BC0
TAN-000220,2021,EM.8275,2,27,29,640,592,1232,TAN-000220,EM.8275,LEVOLOSI,,TZA,Arusha,Arusha Urban,Levolosi,-3.366305468,36.68093467,0101000020E6100000682E05DE28574240703FAB8F31EE0AC0
TAN-000223,2021,EM.13887,6,3,9,91,100,191,TAN-000223,EM.13887,HOPE,,TZA,Arusha,Arusha Urban,Moshono,-3.414855,36.735931,0101000020E6100000698EACFC325E42401AA88C7F9F510BC0
TAN-000226,2021,EM.1770,3,14,17,264,283,547,TAN-000226,EM.1770,MOSHONO,,TZA,Arusha,Arusha Urban,Moshono,-3.414855,36.735931,0101000020E6100000698EACFC325E42401AA88C7F9F510BC0
TAN-000229,2021,EM.6950,2,15,17,411,369,780,TAN-000229,EM.6950,OLKEREYAN,,TZA,Arusha,Arusha Urban,Moshono,-3.414855,36.735931,0101000020E6100000698EACFC325E42401AA88C7F9F510BC0
TAN-000230,2021,EM.13515,2,15,17,291,299,590,TAN-000230,EM.13515,WEMA,,TZA,Arusha,Arusha Urban,Moshono,-3.414855,36.735931,0101000020E6100000698EACFC325E42401AA88C7F9F510BC0
TAN-000233,2021,EM.12380,3,6,9,43,38,81,TAN-000233,EM.12380,LISE,,TZA,Arusha,Arusha Urban,Ngarenaro,-3.365620175,36.67409127,0101000020E6100000A5956B9F48564240F80F3345CAEC0AC0
TAN-000236,2021,EM.13510,2,29,31,761,701,1462,TAN-000236,EM.13510,MWANGAZA,,TZA,Arusha,Arusha Urban,Unga Ltd,-3.377309092,36.67818316,0101000020E6100000F072AEB4CE564240D6FC14A1BA040BC0
TAN-000239,2021,EM.11569,2,7,9,37,47,84,TAN-000239,EM.11569,SWIFTS,,TZA,Arusha,Arusha Urban,Ngarenaro,-3.368718,36.675485,0101000020E610000023F8DF4A765642407D923B6C22F30AC0
TAN-000240,2021,EM.14312,11,14,25,411,437,848,TAN-000240,EM.14312,ARUSHA ALLIANCE,,TZA,Arusha,Arusha Urban,Olasiti,-3.41581,36.652815,0101000020E61000004BAB21718F5342404FCC7A3194530BC0
TAN-000243,2021,EM.8201,4,26,30,868,833,1701,TAN-000243,EM.8201,BURKA ESTATE,,TZA,Arusha,Arusha Urban,Olasiti,-3.400281,36.622995,0101000020E61000002849D74CBE4F424071AE6186C6330BC0
TAN-000246,2021,EM.13508,41,13,54,705,678,1383,TAN-000246,EM.13508,LUCKY VICENT,,TZA,Arusha,Arusha Urban,Olasiti,-3.410138,36.654843,0101000020E6100000DC813AE5D153424058C6866EF6470BC0
TAN-000249,2021,EM.993,8,49,57,1680,1571,3251,TAN-000249,EM.993,OLASITI,,TZA,Arusha,Arusha Urban,Olasiti,-3.400644,36.646474,0101000020E61000006EDBF7A8BF52424080B56AD784340BC0
TAN-000252,2021,EM.11563,5,8,13,111,159,270,TAN-000252,EM.11563,ASSUMPTION,,TZA,Arusha,Arusha Urban,Oloirieni,-3.383073683,36.70735834,0101000020E61000002A6DD4B78A5A4240D28B63EF88100BC0
TAN-000255,2021,EM.14570,6,5,11,84,106,190,TAN-000255,EM.14570,BIBLE BAPTIST,,TZA,Arusha,Arusha Urban,Sokoni I,-3.433151718,36.67371797,0101000020E610000052F0F3633C5642403521783F18770BC0
TAN-000257,2021,EM.12381,6,7,13,146,123,269,TAN-000257,EM.12381,LOAMO,,TZA,Arusha,Arusha Urban,Sokoni I,-3.433151718,36.67371797,0101000020E610000052F0F3633C5642403521783F18770BC0
TAN-000260,2021,EM.7608,2,16,18,402,419,821,TAN-000260,EM.7608,OLOIRIEN,,TZA,Arusha,Arusha Urban,Kimandolu,-3.381232134,36.71225601,0101000020E61000002BAA76342B5B4240DDB6DD6EC30C0BC0
TAN-000263,2021,EM.2857,3,34,37,884,931,1815,TAN-000263,EM.2857,KIJENGE,,TZA,Arusha,Arusha Urban,Sekei,-3.377473565,36.70545553,0101000020E6100000F110E75D4C5A42407A3C46DC10050BC0
TAN-000266,2021,EM.11564,7,8,15,127,122,249,TAN-000266,EM.11564,KILIMANI,,TZA,Arusha,Arusha Urban,Moivo,-3.362278739,36.70204607,0101000020E6100000B97747A5DC59424037544065F2E50AC0
TAN-000269,2021,EM.657,3,9,12,165,145,310,TAN-000269,EM.657,NAURA,,TZA,Arusha,Arusha Urban,Sekei,-3.368775,36.700123,0101000020E6100000B51666A19D594240C1A8A44E40F30AC0
TAN-000272,2021,EM.13038,11,8,19,181,166,347,TAN-000272,EM.13038,PRIME,,TZA,Arusha,Arusha Urban,Sekei,-3.368775,36.700123,0101000020E6100000B51666A19D594240C1A8A44E40F30AC0
TAN-000275,2021,EM.302,2,27,29,866,865,1731,TAN-000275,EM.302,SANAWARI,,TZA,Arusha,Arusha Urban,Moivo,-3.359946558,36.69443288,0101000020E6100000FD6E362DE3584240965737A92BE10AC0
TAN-000278,2021,EM.12377,28,24,52,541,568,1109,TAN-000278,EM.12377,GREEN VALLEY,,TZA,Arusha,Arusha Urban,Sombetini,-3.402187247,36.66378571,0101000020E610000046001EEEF6544240BFDD85F2AD370BC0
TAN-000281,2021,EM.13035,9,5,14,128,120,248,TAN-000281,EM.13035,HIGH VIEW,,TZA,Arusha,Arusha Urban,Sombetini,-3.390431,36.662892,0101000020E6100000D86322A5D9544240B1C1C2499A1F0BC0
TAN-000284,2021,EM.2344,3,42,45,1067,1053,2120,TAN-000284,EM.2344,SOMBETINI,,TZA,Arusha,Arusha Urban,Sombetini,-3.390190864,36.66710668,0101000020E610000086C56EC063554240B69F40631C1F0BC0
TAN-000287,2021,EM.7607,5,12,17,566,579,1145,TAN-000287,EM.7607,MKONOO,,TZA,Arusha,Arusha Urban,Terrat,-3.491933,36.680992,0101000020E6100000386BF0BE2A574240D99596917AEF0BC0
TAN-000290,2021,EM.10549,2,10,12,323,323,646,TAN-000290,EM.10549,ENGIRA,,TZA,Arusha,Arusha Urban,Lemara,-3.394675565,36.69761622,0101000020E61000009207017D4B59424080A4A1A94B280BC0
TAN-000293,2021,EM.10891,6,3,9,70,75,145,TAN-000293,EM.10891,HIGHRIDGE,,TZA,Arusha,Arusha Urban,Oloirieni,-3.393820178,36.70661343,0101000020E6100000D761124F725A4240831E88318B260BC0
TAN-000296,2021,EM.2755,4,31,35,630,627,1257,TAN-000296,EM.2755,THEMI,,TZA,Arusha,Arusha Urban,Themi,-3.38094329,36.693412,0101000020E6100000B55373B9C1584240F571E1FE2B0C0BC0
TAN-000299,2021,EM.13512,3,22,25,624,617,1241,TAN-000299,EM.13512,SALEI,,TZA,Arusha,Arusha Urban,Unga Ltd,-3.380318,36.679798,0101000020E61000006FF1F09E035742401AA4E029E40A0BC0
TAN-000302,2021,EM.7609,5,4,9,268,261,529,TAN-000302,EM.7609,DUMBECHAND,,TZA,Arusha,Karatu,Baray,-3.609654752,35.28516904,0101000020E6100000DC504A6B80A441402687ADAB92E00CC0
TAN-000305,2021,EM.14578,3,5,8,92,107,199,TAN-000305,EM.14578,ENDESH,,TZA,Manyara,Karatu,Baray,-3.817911456,34.91017645,0101000020E6100000712B73A98074414096595429158B0EC0
TAN-000308,2021,EM.5796,7,5,12,354,322,676,TAN-000308,EM.5796,MANG'OLA NT,,TZA,Arusha,Karatu,Baray,-3.576107554,35.31068921,0101000020E6100000C515FEA9C4A74140B844FB46DE9B0CC0
TAN-000311,2021,EM.10720,4,1,5,249,234,483,TAN-000311,EM.10720,MATALA,,TZA,Singida,Mkalama,Mwangeza,-3.900619783,34.72249733,0101000020E61000000FE6E1CA7A5C4140C8EC102578340FC0
TAN-000314,2021,EM.10721,4,4,8,305,345,650,TAN-000314,EM.10721,MBUGANYEKUNDU,,TZA,Arusha,Karatu,Baray,-3.560149061,35.34765036,0101000020E6100000425297CE7FAC4140770A4F6E2F7B0CC0
TAN-000317,2021,EM.13893,5,0,5,68,85,153,TAN-000317,EM.13893,MOHEDAGEW,,TZA,Arusha,Karatu,Baray,-3.785075461,34.98025495,0101000020E6100000FEFE83FE787D4140D418AFA4D5470EC0
TAN-000319,2021,EM.14582,4,1,5,121,102,223,TAN-000319,EM.14582,NJORO,,TZA,Arusha,Karatu,Baray,-3.730468,35.107075,0101000020E61000000F9C33A2B48D41403C32569BFFD70DC0
TAN-000322,2021,EM.7612,8,8,16,395,450,845,TAN-000322,EM.7612,QANGDEND,,TZA,Arusha,Karatu,Baray,-3.529562093,35.36465565,0101000020E61000009C864D09ADAE41402A17F50C8B3C0CC0
TAN-000325,2021,EM.10029,6,2,8,283,266,549,TAN-000325,EM.10029,AYALALIYO,,TZA,Arusha,Karatu,Buger,-3.641636429,35.63024117,0101000020E610000013DF1EBEABD041405CD1B34712220DC0
TAN-000328,2021,EM.994,8,1,9,274,242,516,TAN-000328,EM.994,BUGER,,TZA,Arusha,Karatu,Kansay,-3.662764793,35.62435717,0101000020E610000029168DEFEACF41406E00B7A0574D0DC0
TAN-000331,2021,EM.12390,7,1,8,220,200,420,TAN-000331,EM.12390,GAMDI,,TZA,Arusha,Karatu,Kansay,-3.68178745,35.61853,0101000020E610000025CCB4FD2BCF4140FC9584FA4C740DC0
TAN-000334,2021,EM.5793,4,5,9,214,184,398,TAN-000334,EM.5793,CHANGARAWE,,TZA,Arusha,Karatu,Daa,-3.408751401,35.54844078,0101000020E610000045F2B64E33C64140D8E95B741F450BC0
TAN-000337,2021,EM.3024,5,2,7,241,246,487,TAN-000337,EM.3024,ENDASHANGWET,,TZA,Arusha,Karatu,Daa,-3.411477,35.487681,0101000020E6100000B7F0BC546CBE414015731074B44A0BC0
TAN-000340,2021,EM.9232,7,1,8,252,243,495,TAN-000340,EM.9232,MAKHOROMBA,,TZA,Arusha,Karatu,Mang'ola,-3.406337128,35.40600078,0101000020E6100000102064D5F7B34140D7481FAE2D400BC0
TAN-000343,2021,EM.8823,7,2,9,157,155,312,TAN-000343,EM.8823,MIDABINI,,TZA,Arusha,Karatu,Daa,-3.411477,35.487681,0101000020E6100000B7F0BC546CBE414015731074B44A0BC0
TAN-000346,2021,EM.658,4,11,15,330,313,643,TAN-000346,EM.658,ENDABASH,,TZA,Arusha,Karatu,Kansay,-3.608329995,35.58795929,0101000020E6100000F6F6004042CB4140549BCD1DDCDD0CC0
TAN-000349,2021,EM.8055,5,5,10,407,410,817,TAN-000349,EM.8055,QARU,,TZA,Arusha,Karatu,Endabash,-3.544202046,35.59348101,0101000020E61000009F5F8C2FF7CB4140EBE32F9A865A0CC0
TAN-000352,2021,EM.10415,4,2,6,199,176,375,TAN-000352,EM.10415,QARU SARAMAY,,TZA,Arusha,Karatu,Endabash,-3.537054,35.556763,0101000020E6100000B94F8E0244C74140E57CB1F7E24B0CC0
TAN-000355,2021,EM.13040,3,6,9,146,145,291,TAN-000355,EM.13040,DUUMA,,TZA,Arusha,Karatu,Endabash,-3.548184917,35.62934272,0101000020E61000001630604D8ED041405F6715C6AE620CC0
TAN-000358,2021,EM.1771,5,5,10,310,338,648,TAN-000358,EM.1771,ENDALLAH,,TZA,Arusha,Karatu,Endamarariek,-3.483080096,35.70861347,0101000020E6100000DA939FD8B3DA41402C59ED1859DD0BC0
TAN-000361,2021,EM.1175,6,6,12,388,363,751,TAN-000361,EM.1175,ENDAMARARIEK,,TZA,Arusha,Karatu,Endabash,-3.526210476,35.64054969,0101000020E6100000A8014188FDD141405ADC89D6AD350CC0
TAN-000364,2021,EM.6953,4,3,7,288,322,610,TAN-000364,EM.6953,GETAMOCK,,TZA,Arusha,Karatu,Endamarariek,-3.483845,35.710943,0101000020E6100000FA28232E00DB41403BAA9A20EADE0BC0
TAN-000367,2021,EM.10717,6,5,11,216,268,484,TAN-000367,EM.10717,GIDBASSO,,TZA,Arusha,Karatu,Endamarariek,-3.510281392,35.67090248,0101000020E6100000E133E921E0D54140C92D13690E150CC0
TAN-000370,2021,EM.13892,4,4,8,152,177,329,TAN-000370,EM.13892,MCHANGANI,,TZA,Arusha,Karatu,Endamarariek,-3.483845,35.710943,0101000020E6100000FA28232E00DB41403BAA9A20EADE0BC0
TAN-000372,2021,EM.10554,6,4,10,268,257,525,TAN-000372,EM.10554,SHANGIT,,TZA,Arusha,Karatu,Endamarariek,-3.483051469,35.66512351,0101000020E610000018A065C422D54140391EAD164ADD0BC0
TAN-000375,2021,EM.4588,2,7,9,146,144,290,TAN-000375,EM.4588,AYALABE,,TZA,Arusha,Karatu,Qurus,-3.343502286,35.66169826,0101000020E610000093425187B2D4414019C563207EBF0AC0
TAN-000378,2021,EM.14579,2,9,11,247,252,499,TAN-000378,EM.14579,HAYMU,,TZA,Arusha,Karatu,Qurus,-3.358576802,35.66472447,0101000020E61000001FC001B115D54140DC8DAD835DDE0AC0
TAN-000381,2021,EM.3025,4,16,20,318,303,621,TAN-000381,EM.3025,SUMAWE,,TZA,Arusha,Karatu,Qurus,-3.357775683,35.63711671,0101000020E6100000B297540A8DD1414000504E7FB9DC0AC0
TAN-000384,2021,EM.7614,7,11,18,336,298,634,TAN-000384,EM.7614,TLOMA,,TZA,Arusha,Karatu,Qurus,-3.337508659,35.64251142,0101000020E61000006F1A70D03DD24140AE2C64BD37B30AC0
TAN-000387,2021,EM.8428,3,3,6,215,237,452,TAN-000387,EM.8428,BARAKTA,,TZA,Arusha,Karatu,Kansay,-3.637635,35.536022,0101000020E6100000E0F76F5E9CC441409947FE60E0190DC0
TAN-000390,2021,EM.12389,4,2,6,217,203,420,TAN-000390,EM.12389,ENDAGESH,,TZA,Arusha,Karatu,Kansay,-3.673472528,35.55685034,0101000020E6100000828837DF46C74140951D949045630DC0
TAN-000393,2021,EM.13890,2,5,7,133,104,237,TAN-000393,EM.13890,GEER,,TZA,Arusha,Karatu,Kansay,-3.656618982,35.57500916,0101000020E6100000DB8C70E699C9414085FBEC73C1400DC0
TAN-000395,2021,EM.12391,5,2,7,121,131,252,TAN-000395,EM.12391,HARAA,,TZA,Arusha,Karatu,Kansay,-3.680673321,35.58251775,0101000020E610000075CB0EF18FCA41403FA3A7DA04720DC0
TAN-000398,2021,EM.807,4,3,7,112,101,213,TAN-000398,EM.807,KANSAY,,TZA,Arusha,Mbulu,Kansay,-3.693808656,35.56576962,0101000020E6100000347C8F236BC841401C9D798DEB8C0DC0
TAN-000401,2021,EM.7611,5,1,6,116,127,243,TAN-000401,EM.7611,LAJA,,TZA,Arusha,Karatu,Kansay,-3.665544828,35.53217934,0101000020E61000001474DE731EC441406C41B22A09530DC0
TAN-000404,2021,EM.8429,5,24,29,636,632,1268,TAN-000404,EM.8429,BWAWANI,,TZA,Arusha,Karatu,Qurus,-3.368611308,35.64703736,0101000020E6100000BE3EC61ED2D24140C45D467CEAF20AC0
TAN-000407,2021,EM.13516,2,14,16,363,365,728,TAN-000407,EM.13516,ENDORO,,TZA,Arusha,Karatu,Qurus,-3.364057092,35.65015428,0101000020E61000002BFA644138D341408922C0C396E90AC0
TAN-000410,2021,EM.737,6,9,15,267,240,507,TAN-000410,EM.737,KARATU,,TZA,Arusha,Karatu,Qurus,-3.370821302,35.66496467,0101000020E61000009E52F38F1DD541404900A62871F70AC0
TAN-000413,2021,EM.10268,4,3,7,144,128,272,TAN-000413,EM.10268,DIRANGW,,TZA,Arusha,Karatu,Rhotia,-3.317627764,35.814503,0101000020E610000038BF61A241E84140EE73D56C808A0AC0
TAN-000416,2021,EM.2533,2,7,9,241,202,443,TAN-000416,EM.2533,KITETE KCU,,TZA,Arusha,Karatu,Mbulumbulu,-3.270356689,35.8572964,0101000020E6100000417D70E3BBED414029148CC4B0290AC0
TAN-000419,2021,EM.4590,8,3,11,157,171,328,TAN-000419,EM.4590,LOSITETE,,TZA,Arusha,Karatu,Mbulumbulu,-3.209778759,35.87136479,0101000020E6100000CCF7A5E188EF41405B676A7CA0AD09C0
TAN-000422,2021,EM.14581,6,2,8,154,144,298,TAN-000422,EM.14581,MARMO,,TZA,Arusha,Karatu,Mbulumbulu,-3.203909,35.880894,0101000020E61000000E9F7422C1F0414069E1B20A9BA109C0
TAN-000424,2021,EM.995,6,7,13,265,256,521,TAN-000424,EM.995,MBULUMBULU,,TZA,Arusha,Karatu,Rhotia,-3.296374789,35.76670366,0101000020E610000035B6745823E2414045E9D0BEF95E0AC0
TAN-000427,2021,EM.17276,4,1,5,121,109,230,TAN-000427,EM.17276,SABASABA,,TZA,Arusha,Karatu,Mbulumbulu,-3.300113162,35.83766613,0101000020E610000090A8CCA438EB4140FB1CBFBAA1660AC0
TAN-000430,2021,EM.7613,7,4,11,243,221,464,TAN-000430,EM.7613,SLAHHAMO,,TZA,Arusha,Karatu,Mbulumbulu,-3.270384894,35.81884695,0101000020E6100000F55613FACFE84140DA7F288EBF290AC0
TAN-000433,2021,EM.3412,12,10,22,232,207,439,TAN-000433,EM.3412,GYETIGHI,,TZA,Arusha,Karatu,Baray,-3.550867189,35.42941786,0101000020E61000005882182AF7B641403C8E890E2D680CC0
TAN-000436,2021,EM.10269,2,3,5,118,138,256,TAN-000436,EM.10269,MEALI,,TZA,Arusha,Karatu,Daa,-3.398591642,35.50436472,0101000020E6100000FED3EC058FC04140A1CA96D050300BC0
TAN-000439,2021,EM.996,4,9,13,313,314,627,TAN-000439,EM.996,OLDEANI,,TZA,Arusha,Karatu,Oldean,-3.37763067,35.5291408,0101000020E6100000597DBFE2BAC34140BBEE8C3A63050BC0
TAN-000442,2021,EM.4589,4,6,10,282,233,515,TAN-000442,EM.4589,GONGALI,,TZA,Arusha,Karatu,Qurus,-3.414125427,35.6263256,0101000020E6100000E452F06F2BD041409C41EBFD20500BC0
TAN-000445,2021,EM.11089,1,13,14,297,264,561,TAN-000445,EM.11089,KINIHHE,,TZA,Arusha,Karatu,Qurus,-3.383259251,35.63102579,0101000020E6100000C57DFD73C5D04140C479E739EA100BC0
TAN-000448,2021,EM.10414,5,2,7,127,99,226,TAN-000448,EM.10414,MAGESHO,,TZA,Arusha,Karatu,Endamarariek,-3.450771798,35.61651567,0101000020E61000008E0F48FCE9CE4140F4F3923E2E9B0BC0
TAN-000451,2021,EM.9335,6,1,7,157,135,292,TAN-000451,EM.9335,MENDAY,,TZA,Arusha,Karatu,Qurus,-3.435583988,35.58873928,0101000020E61000003CBC08CF5BCB414055F83875137C0BC0
TAN-000454,2021,EM.10553,1,6,7,216,216,432,TAN-000454,EM.10553,QURUS,,TZA,Arusha,Karatu,Qurus,-3.457467373,35.58090243,0101000020E61000002B82C5025BCA4140202D70A7E4A80BC0
TAN-000457,2021,EM.12387,3,6,9,142,133,275,TAN-000457,EM.12387,AKKO,,TZA,Arusha,Karatu,Rhotia,-3.359176,35.771926,0101000020E61000004F779E78CEE241409510ACAA97DF0AC0
TAN-000460,2021,EM.9334,3,4,7,195,165,360,TAN-000460,EM.9334,CHEMCHEM,,TZA,Arusha,Karatu,Rhotia,-3.415494373,35.73723197,0101000020E61000009B5B009E5DDE4140FDA7BDB6EE520BC0
TAN-000463,2021,EM.10718,2,5,7,131,127,258,TAN-000463,EM.10718,GILALA,,TZA,Arusha,Karatu,Rhotia,-3.359176,35.771926,0101000020E61000004F779E78CEE241409510ACAA97DF0AC0
TAN-000466,2021,EM.12392,4,2,6,121,110,231,TAN-000466,EM.12392,HAREABI,,TZA,Arusha,Karatu,Karatu,-3.363800564,35.71339343,0101000020E61000000184D57950DB4140BC2B254510E90AC0
TAN-000469,2021,EM.13891,5,2,7,108,103,211,TAN-000469,EM.13891,JUHUDI,,TZA,Arusha,Karatu,Karatu,-3.389866844,35.70215421,0101000020E610000070596C30E0D94140A8320682721E0BC0
TAN-000472,2021,EM.9050,5,10,15,300,311,611,TAN-000472,EM.9050,KIBAONI,,TZA,Arusha,Karatu,Rhotia,-3.359176,35.771926,0101000020E61000004F779E78CEE241409510ACAA97DF0AC0
TAN-000475,2021,EM.2451,3,7,10,140,146,286,TAN-000475,EM.2451,KILIMAMOJA,,TZA,Arusha,Karatu,Rhotia,-3.377171067,35.77818749,0101000020E610000069DACDA59BE341407219AE4372040BC0
TAN-000478,2021,EM.5795,3,5,8,239,229,468,TAN-000478,EM.5795,KILIMATEMBO,,TZA,Arusha,Karatu,Rhotia,-3.335274605,35.73184571,0101000020E61000007E15C71EADDD41400B3CBD73A4AE0AC0
TAN-000481,2021,EM.10031,6,2,8,149,147,296,TAN-000481,EM.10031,MARERA,,TZA,Arusha,Karatu,Karatu,-3.329905645,35.68663128,0101000020E61000005C01A688E3D7414088532092A5A30AC0
TAN-000484,2021,EM.2345,5,10,15,284,291,575,TAN-000484,EM.2345,RHOTIA,,TZA,Arusha,Karatu,Ganako,-3.334998811,35.70431346,0101000020E6100000936A86F126DA4140148D4BDB13AE0AC0
TAN-000487,2021,EM.12395,3,7,10,164,166,330,TAN-000487,EM.12395,UMOJA,,TZA,Arusha,Karatu,Rhotia,-3.316982769,35.71624952,0101000020E61000007D167410AEDB4140120112432E890AC0
TAN-000490,2021,EM.3413,3,9,12,406,332,738,TAN-000490,EM.3413,ENGARENAIBOR,,TZA,Arusha,Longido,Engarenaibor,-2.526135904,36.48426605,0101000020E610000014A80F6EFC3D42408073A7BD863504C0
TAN-000493,2021,EM.11572,7,4,11,308,247,555,TAN-000493,EM.11572,NGOSWAK,,TZA,Arusha,Longido,Engarenaibor,-2.509000933,36.49458862,0101000020E6100000D8EF0DAE4E3F4240A9F2C6146F1204C0
TAN-000496,2021,EM.11573,4,2,6,190,188,378,TAN-000496,EM.11573,SINONIK,,TZA,Arusha,Longido,Engarenaibor,-2.501333508,36.57935892,0101000020E6100000DF05DF6E284A4240DCFD6924BB0204C0
TAN-000499,2021,EM.9336,5,3,8,204,139,343,TAN-000499,EM.9336,KISERIAN,,TZA,Arusha,Longido,Engikaret,-2.848169615,36.52831947,0101000020E6100000BABEEEF89F4342405916AF260DC906C0
TAN-000501,2021,EM.6955,4,5,9,355,234,589,TAN-000501,EM.6955,GELAI LUMBWA,,TZA,Arusha,Longido,Gelai lumbwa,-2.617818488,36.18671137,0101000020E61000007EF87D28E6174240E697C6D14AF104C0
TAN-000504,2021,EM.6954,10,3,13,458,211,669,TAN-000504,EM.6954,GELAI BOMBA,,TZA,Arusha,Longido,Gelai Meirugoi,-2.718178,36.042722,0101000020E6100000EC681CEA770542404CA7751BD4BE05C0
TAN-000507,2021,EM.13896,6,1,7,222,137,359,TAN-000507,EM.13896,MAGADINI,,TZA,Arusha,Longido,Gelai Meirugoi,-2.629847613,36.00593273,0101000020E6100000BAA95867C2004240AA639A8BED0905C0
TAN-000510,2021,EM.10723,9,7,16,715,651,1366,TAN-000510,EM.10723,IRKASWA,,TZA,Arusha,Longido,Kamwanga,-2.863495201,37.32780532,0101000020E61000006B6D5486F5A942403262042C70E806C0
TAN-000513,2021,EM.4037,4,10,14,444,508,952,TAN-000513,EM.4037,KAMWANGA,,TZA,Arusha,Rombo,Motamburu Kitendeni,-2.88300662,37.36232406,0101000020E6100000812082A260AE4240796958C6651007C0
TAN-000516,2021,EM.6956,2,6,8,323,295,618,TAN-000516,EM.6956,KITENDENI,,TZA,Arusha,Longido,Kamwanga,-2.840806344,37.23735263,0101000020E61000001BBC2B92619E42409FFE2DADF8B906C0
TAN-000519,2021,EM.3026,8,7,15,526,495,1021,TAN-000519,EM.3026,KETUMBEINE,,TZA,Arusha,Longido,Kitumbeine,-2.830791612,36.30764382,0101000020E6100000B7DB68DF6027424023A69A1276A506C0
TAN-000522,2021,EM.13894,4,6,10,87,50,137,TAN-000522,EM.13894,ABERNATHY,,TZA,Arusha,Longido,Longido,-2.721493,36.712864,0101000020E6100000753FA7203F5B4240EB573A1F9EC505C0
TAN-000525,2021,EM.474,9,14,23,584,505,1089,TAN-000525,EM.474,LONGIDO,,TZA,Arusha,Longido,Orbomba,-2.724699757,36.70010566,0101000020E6100000E5B8F00F9D59424089DFDD622FCC05C0
TAN-000528,2021,EM.13895,4,4,8,313,318,631,TAN-000528,EM.13895,KITARINI,,TZA,Arusha,Longido,Mundarara,-2.622670757,36.46436754,0101000020E6100000DECF4265703B4240ACEC4BCE3AFB04C0
TAN-000531,2021,EM.8056,4,3,7,299,260,559,TAN-000531,EM.8056,MUNDARARA,,TZA,Arusha,Longido,Mundarara,-2.631918,36.433765,0101000020E610000021938C9C85374240A3073E062B0E05C0
TAN-000534,2021,EM.3745,1,10,11,332,356,688,TAN-000534,EM.3745,NAMANGA,,TZA,Arusha,Longido,Namanga,-2.551750163,36.78742411,0101000020E610000016443050CA6442406D2E4DFDFB6904C0
TAN-000537,2021,EM.9133,3,5,8,251,257,508,TAN-000537,EM.9133,ELERAI,,TZA,Arusha,Siha,Olmolog,-2.923582807,37.06698373,0101000020E610000067DB40EC92884240FAB3F9617F6307C0
TAN-000540,2021,EM.6957,4,8,12,376,340,716,TAN-000540,EM.6957,LERANG'WA,,TZA,Arusha,Longido,Olmolog,-2.842291003,37.11855939,0101000020E610000084573FF42C8F4240E1CCBC1003BD06C0
TAN-000542,2021,EM.3253,3,8,11,394,416,810,TAN-000542,EM.3253,OLMOLOG,,TZA,Arusha,Siha,Ndumeti,-2.867067923,37.12482327,0101000020E610000003377B35FA8F4240AF90A54EC1EF06C0
TAN-000545,2021,EM.15205,6,10,16,299,248,547,TAN-000545,EM.15205,ORBOMBA,,TZA,Arusha,Longido,Orbomba,-2.730557,36.681306,0101000020E6100000C748F6083557424036E9B6442ED805C0
TAN-000547,2021,EM.6958,4,6,10,483,432,915,TAN-000547,EM.6958,NGEREYANI,,TZA,Arusha,Longido,Tingatinga,-2.981002989,36.85523112,0101000020E6100000F2759D36786D42401744581818D907C0
TAN-000550,2021,EM.3254,2,6,8,233,227,460,TAN-000550,EM.3254,TINGATINGA,,TZA,Arusha,Siha,Tingatinga,-2.978411459,36.95636021,0101000020E6100000A692E8026A7A4240407E1363C9D307C0
TAN-000553,2021,EM.12396,2,23,25,444,451,895,TAN-000553,EM.12396,CHEMCHEM,,TZA,Arusha,Meru,Kikatiti,-3.390218,36.941109,0101000020E6100000527C7C4276784240F67B629D2A1F0BC0
TAN-000556,2021,EM.2346,1,20,21,468,454,922,TAN-000556,EM.2346,KIKATITI,,TZA,Arusha,Meru,Kikatiti,-3.40671974,36.94602225,0101000020E6100000E884D0411779424041806F47F6400BC0
TAN-000559,2021,EM.4043,5,7,12,231,246,477,TAN-000559,EM.4043,NGYEKU,,TZA,Arusha,Meru,Kikatiti,-3.370167,36.957439,0101000020E61000001D75745C8D7A4240AB77B81D1AF60AC0
TAN-000562,2021,EM.6962,2,9,11,104,122,226,TAN-000562,EM.6962,NKOAMANGASHA,,TZA,Arusha,Meru,Kikatiti,-3.370167,36.957439,0101000020E61000001D75745C8D7A4240AB77B81D1AF60AC0
TAN-000565,2021,EM.1461,4,3,7,166,156,322,TAN-000565,EM.1461,SAKILA,,TZA,Arusha,Meru,Kikatiti,-3.370167,36.957439,0101000020E61000001D75745C8D7A4240AB77B81D1AF60AC0
TAN-000568,2021,EM.6963,2,7,9,187,159,346,TAN-000568,EM.6963,SURUMALA,,TZA,Arusha,Meru,Kikatiti,-3.369817491,36.93931674,0101000020E61000005371EB873B78424092AB6ADF62F50AC0
TAN-000571,2021,EM.1459,3,5,8,177,180,357,TAN-000571,EM.1459,KARANGAI,,TZA,Arusha,Meru,Kikwe,-3.477362237,36.86652465,0101000020E6100000C4769C47EA6E42404D15E24AA3D10BC0
TAN-000574,2021,EM.4039,2,8,10,170,161,331,TAN-000574,EM.4039,KIKWE,,TZA,Arusha,Meru,Kikwe,-3.426451165,36.82920425,0101000020E610000023BA675D236A4240F920783A5F690BC0
TAN-000577,2021,EM.8357,4,2,6,116,100,216,TAN-000577,EM.8357,MAWENI,,TZA,Arusha,Meru,Kikwe,-3.457372173,36.85407296,0101000020E610000089CC4343526D42406915E9BDB2A80BC0
TAN-000580,2021,EM.9459,1,8,9,221,205,426,TAN-000580,EM.9459,NAMBALA,,TZA,Arusha,Meru,Kikwe,-3.469767,36.86896,0101000020E61000001EC4CE143A6F424096EB6D3315C20BC0
TAN-000583,2021,EM.11580,1,9,10,97,95,192,TAN-000583,EM.11580,NGANANA,,TZA,Arusha,Arusha,Mlangarini,-3.409787176,36.7964692,0101000020E6100000B922E7B3F2654240ECEBB97F3E470BC0
TAN-000586,2021,EM.6960,4,3,7,121,120,241,TAN-000586,EM.6960,KANDASHE,,TZA,Arusha,Meru,Leguruki,-3.206255921,36.94035392,0101000020E61000005F886A845D7842402F691A8169A609C0
TAN-000589,2021,EM.5798,3,3,6,145,140,285,TAN-000589,EM.5798,MIRIRINI,,TZA,Arusha,Meru,Leguruki,-3.22773986,36.92366994,0101000020E6100000954C0CD13A764240A090954669D209C0
TAN-000592,2021,EM.3255,3,5,8,267,222,489,TAN-000592,EM.3255,NKOASENGA,,TZA,Arusha,Meru,Leguruki,-3.25381773,36.91221987,0101000020E6100000A834E69EC3744240ADF50B97D1070AC0
TAN-000595,2021,EM.11581,2,2,4,188,173,361,TAN-000595,EM.11581,NOSEIYA,,TZA,Arusha,Meru,Leguruki,-3.244614802,36.92574947,0101000020E61000003CF868F57E764240FEA8F59AF8F409C0
TAN-000598,2021,EM.10556,6,1,7,97,91,188,TAN-000598,EM.10556,SINAI,,TZA,Arusha,Meru,Leguruki,-3.19638097,36.90819942,0101000020E6100000B692EBE03F74424070A79D2F309209C0
TAN-000601,2021,EM.3027,6,2,8,244,220,464,TAN-000601,EM.3027,MAJENGO,,TZA,Arusha,Monduli,Majengo,-3.372447687,35.83639075,0101000020E6100000A5F622DA0EEB4140361659DAC5FA0AC0
TAN-000626,2021,EM.4599,6,9,15,317,315,632,TAN-000626,EM.4599,MAJENGO,,TZA,Arusha,Monduli,Majengo,-3.372447687,35.83639075,0101000020E6100000A5F622DA0EEB4140361659DAC5FA0AC0
TAN-000651,2021,EM.16772,2,8,10,214,267,481,TAN-000651,EM.16772,MAJENGO,,TZA,Arusha,Monduli,Majengo,-3.372447687,35.83639075,0101000020E6100000A5F622DA0EEB4140361659DAC5FA0AC0
TAN-000676,2021,EM.240,4,26,30,521,456,977,TAN-000676,EM.240,MAJENGO,,TZA,Arusha,Monduli,Majengo,-3.372447687,35.83639075,0101000020E6100000A5F622DA0EEB4140361659DAC5FA0AC0
TAN-000701,2021,EM.4920,4,9,13,159,195,354,TAN-000701,EM.4920,MAJENGO,,TZA,Arusha,Monduli,Majengo,-3.372447687,35.83639075,0101000020E6100000A5F622DA0EEB4140361659DAC5FA0AC0
TAN-000726,2021,EM.693,1,14,15,295,291,586,TAN-000726,EM.693,MAJENGO,,TZA,Arusha,Monduli,Majengo,-3.372447687,35.83639075,0101000020E6100000A5F622DA0EEB4140361659DAC5FA0AC0
TAN-000751,2021,EM.7261,3,12,15,417,449,866,TAN-000751,EM.7261,MAJENGO,,TZA,Arusha,Monduli,Majengo,-3.372447687,35.83639075,0101000020E6100000A5F622DA0EEB4140361659DAC5FA0AC0
TAN-000776,2021,EM.15696,3,10,13,302,241,543,TAN-000776,EM.15696,MAJENGO,,TZA,Arusha,Monduli,Majengo,-3.372447687,35.83639075,0101000020E6100000A5F622DA0EEB4140361659DAC5FA0AC0
TAN-000801,2021,EM.18369,7,6,13,374,363,737,TAN-000801,EM.18369,MAJENGO,,TZA,Arusha,Monduli,Majengo,-3.372447687,35.83639075,0101000020E6100000A5F622DA0EEB4140361659DAC5FA0AC0
TAN-000826,2021,EM.10668,7,24,31,725,759,1484,TAN-000826,EM.10668,MAJENGO,,TZA,Arusha,Monduli,Majengo,-3.372447687,35.83639075,0101000020E6100000A5F622DA0EEB4140361659DAC5FA0AC0
TAN-000851,2021,EM.12874,3,11,14,284,276,560,TAN-000851,EM.12874,MAJENGO,,TZA,Arusha,Monduli,Majengo,-3.372447687,35.83639075,0101000020E6100000A5F622DA0EEB4140361659DAC5FA0AC0
TAN-000876,2021,EM.7932,3,13,16,316,252,568,TAN-000876,EM.7932,MAJENGO,,TZA,Arusha,Monduli,Majengo,-3.372447687,35.83639075,0101000020E6100000A5F622DA0EEB4140361659DAC5FA0AC0
TAN-000901,2021,EM.12888,4,33,37,1587,1688,3275,TAN-000901,EM.12888,MAJENGO,,TZA,Arusha,Monduli,Majengo,-3.372447687,35.83639075,0101000020E6100000A5F622DA0EEB4140361659DAC5FA0AC0
TAN-000926,2021,EM.11516,4,13,17,480,492,972,TAN-000926,EM.11516,MAJENGO,,TZA,Arusha,Monduli,Majengo,-3.372447687,35.83639075,0101000020E6100000A5F622DA0EEB4140361659DAC5FA0AC0
TAN-000951,2021,EM.15186,4,13,17,260,256,516,TAN-000951,EM.15186,MAJENGO,,TZA,Arusha,Monduli,Majengo,-3.372447687,35.83639075,0101000020E6100000A5F622DA0EEB4140361659DAC5FA0AC0
TAN-000976,2021,EM.4028,2,18,20,308,338,646,TAN-000976,EM.4028,MAJENGO,,TZA,Arusha,Monduli,Majengo,-3.372447687,35.83639075,0101000020E6100000A5F622DA0EEB4140361659DAC5FA0AC0
TAN-001001,2021,EM.9051,2,3,5,285,245,530,TAN-001001,EM.9051,LOSITETI,,TZA,Arusha,Meru,Makiba,-3.476271347,36.95333222,0101000020E6100000C18F49CA067A42404E181B5A67CF0BC0
TAN-001004,2021,EM.11096,3,3,6,246,247,493,TAN-001004,EM.11096,MAKIBA,,TZA,Arusha,Meru,Makiba,-3.492064,36.9936,0101000020E61000001EA7E8482E7F4240C24F1C40BFEF0BC0
TAN-001007,2021,EM.3028,2,4,6,228,199,427,TAN-001007,EM.3028,PATANUMBE,,TZA,Arusha,Meru,Makiba,-3.518615302,36.94694192,0101000020E610000044CE9064357942407F5C8AC71F260CC0
TAN-001010,2021,EM.5802,4,6,10,288,334,622,TAN-001010,EM.5802,VALESKA,,TZA,Arusha,Meru,Kikwe,-3.51712614,36.91965504,0101000020E61000006733A041B77542405BA7990713230CC0
TAN-001013,2021,EM.3746,5,5,10,122,148,270,TAN-001013,EM.3746,DOLLY,,TZA,Arusha,Meru,Maroroni,-3.431067627,36.87996991,0101000020E61000000075A0DAA270424076A28295D3720BC0
TAN-001016,2021,EM.2756,3,6,9,281,238,519,TAN-001016,EM.2756,MARORONI,,TZA,Arusha,Meru,Maroroni,-3.438629785,36.91038932,0101000020E61000008B0322A38774424018032D5550820BC0
TAN-001019,2021,EM.11097,4,4,8,137,127,264,TAN-001019,EM.11097,MIGANDINI,,TZA,Arusha,Meru,Maroroni,-3.444668988,36.88988131,0101000020E6100000C5E279A1E7714240180B489DAE8E0BC0
TAN-001022,2021,EM.11579,3,4,7,173,168,341,TAN-001022,EM.11579,NAZARETI,,TZA,Arusha,Meru,Maroroni,-3.464006205,36.91376178,0101000020E6100000A6B76025F6744240B7ED9CE248B60BC0
TAN-001025,2021,EM.5801,5,3,8,244,221,465,TAN-001025,EM.5801,SAMARIA,,TZA,Arusha,Meru,Maroroni,-3.43458654,36.9722075,0101000020E610000085B69C4B717C424085A70482087A0BC0
TAN-008892,2021,EM.1728,5,1,6,370,410,780,TAN-008892,EM.1728,PANDE,,TZA,Lindi,Kilwa,Pande,-9.12772059,39.5636833,0101000020E610000093663DC626C84340D226DA97644122C0
TAN-001028,2021,EM.13044,7,2,9,167,165,332,TAN-001028,EM.13044,SAVANA,,TZA,Arusha,Meru,Maroroni,-3.43805,36.932469,0101000020E610000054C4E9245B774240371AC05B20810BC0
TAN-001031,2021,EM.1460,2,7,9,180,195,375,TAN-001031,EM.1460,MBUGUNI,,TZA,Arusha,Meru,Mbuguni,-3.558036,36.901687,0101000020E61000003B1DC87A6A734240DDEC0F94DB760CC0
TAN-001034,2021,EM.11578,7,3,10,189,162,351,TAN-001034,EM.11578,MIEMBENI,,TZA,Arusha,Meru,Mbuguni,-3.559059456,36.93216789,0101000020E610000036F70447517742400051002AF4780CC0
TAN-001037,2021,EM.1566,3,6,9,177,203,380,TAN-001037,EM.1566,MIKUNGANI,,TZA,Manyara,Meru,Mbuguni,-3.567345901,36.95446513,0101000020E6100000DE42D3E92B7A42406984D2A5EC890CC0
TAN-001040,2021,EM.14583,1,7,8,231,240,471,TAN-001040,EM.14583,TANZANITE,,TZA,Arusha,Meru,Mbuguni,-3.558036,36.901687,0101000020E61000003B1DC87A6A734240DDEC0F94DB760CC0
TAN-001042,2021,EM.11093,4,1,5,98,105,203,TAN-001042,EM.11093,ILKIRIMUNI,,TZA,Arusha,Meru,Ngarenanyuki,-3.175554,36.836178,0101000020E61000003DD175E1076B4240B47405DB886709C0
TAN-001044,2021,EM.11575,3,4,7,125,117,242,TAN-001044,EM.11575,LENDOIYA,,TZA,Arusha,Meru,Ngarenanyuki,-3.197494301,36.89122433,0101000020E6100000F05F8BA313724240F2875FE4779409C0
TAN-001047,2021,EM.9052,4,2,6,138,140,278,TAN-001047,EM.9052,MWAKENY,,TZA,Arusha,Meru,Ngarenanyuki,-3.194346996,36.8047417,0101000020E61000001D9DA9C601674240B02A3FCC058E09C0
TAN-001050,2021,EM.6961,1,4,5,87,64,151,TAN-001050,EM.6961,NASULA,,TZA,Arusha,Monduli,Selela,-3.363646689,36.03013266,0101000020E6100000E99E1263DB034240F16D6498BFE80AC0
TAN-001053,2021,EM.352,0,7,7,228,231,459,TAN-001053,EM.352,NKOANRUA,,TZA,Arusha,Meru,Nkoanrua,-3.352793938,36.76727311,0101000020E61000006D46590136624240157FCFA085D20AC0
TAN-001056,2021,EM.1568,4,9,13,262,258,520,TAN-001056,EM.1568,ULONG'A,,TZA,Arusha,Meru,Nkoanrua,-3.338617574,36.75873289,0101000020E61000008B79CA281E614240677271217DB50AC0
TAN-001059,2021,EM.1178,1,9,10,204,197,401,TAN-001059,EM.1178,NGYANI,,TZA,Arusha,Meru,Nkoaranga,-3.338716353,36.82661077,0101000020E6100000F0D5B761CE6942400B0B56EBB0B50AC0
TAN-001062,2021,EM.303,4,9,13,139,116,255,TAN-001062,EM.303,NKOARANGA,,TZA,Arusha,Meru,Nkoaranga,-3.335971703,36.80796041,0101000020E6100000D5B4283F6B674240A321A6EE11B00AC0
TAN-001065,2021,EM.8057,3,12,15,238,222,460,TAN-001065,EM.8057,NSHUPU,,TZA,Arusha,Meru,Nkoaranga,-3.352232575,36.83504586,0101000020E61000001BAE61C8E26A4240DBAFF14F5FD10AC0
TAN-001068,2021,EM.11095,1,8,9,109,133,242,TAN-001068,EM.11095,KIMUNDO,,TZA,Arusha,Meru,Nkoarisambu,-3.352884508,36.78319453,0101000020E6100000C860E6B73F6442401A00E91CB5D20AC0
TAN-001071,2021,EM.7621,4,7,11,198,173,371,TAN-001071,EM.7621,MFULONY,,TZA,Arusha,Meru,Nkoarisambu,-3.335674,36.778135,0101000020E6100000BD6F7CED99634240A6F0A0D975AF0AC0
TAN-001072,2021,EM.1567,4,4,8,186,202,388,TAN-001072,EM.1567,NDOOMBO,,TZA,Arusha,Meru,Nkoarisambu,-3.328213897,36.77528023,0101000020E6100000ED8AF0613C63424065A98D9B2EA00AC0
TAN-001075,2021,EM.1177,2,8,10,144,146,290,TAN-001075,EM.1177,MAKUMIRA,,TZA,Arusha,Meru,Poli,-3.359257422,36.82708724,0101000020E6100000945EA3FEDD694240A3AEF25AC2DF0AC0
TAN-001078,2021,EM.2106,0,16,16,172,118,290,TAN-001078,EM.2106,NKOAKIRIKA,,TZA,Arusha,Meru,Poli,-3.342282977,36.80039033,0101000020E61000003CB1B93073664240488A81DBFEBC0AC0
TAN-001081,2021,EM.3414,1,7,8,207,193,400,TAN-001081,EM.3414,POLI,,TZA,Arusha,Meru,Poli,-3.357887793,36.8049252,0101000020E6100000F6DCF8C907674240B9947446F4DC0AC0
TAN-001083,2021,EM.4044,4,10,14,314,292,606,TAN-001083,EM.4044,URAKI,,TZA,Arusha,Meru,Poli,-3.36297,36.81818,0101000020E6100000E21E4B1FBA684240D66EBBD05CE70AC0
TAN-001086,2021,EM.604,2,4,6,175,163,338,TAN-001086,EM.604,KILINGA,,TZA,Arusha,Meru,Songoro,-3.318043958,36.83629001,0101000020E6100000F475118D0B6B4240376772A15A8B0AC0
TAN-001089,2021,EM.8203,3,3,6,164,151,315,TAN-001089,EM.8203,MULALA,,TZA,Arusha,Meru,Songoro,-3.281709,36.826748,0101000020E61000004704E3E0D269424032E9EFA5F0400AC0
TAN-001092,2021,EM.2213,4,6,10,186,163,349,TAN-001092,EM.2213,SONGORO,,TZA,Arusha,Meru,Songoro,-3.318686531,36.81612124,0101000020E61000007CAF29A976684240C6902286AB8C0AC0
TAN-001095,2021,EM.808,5,3,8,130,122,252,TAN-001095,EM.808,SURA,,TZA,Arusha,Meru,Songoro,-3.32692873,36.79871535,0101000020E61000001788F94D3C66424053C85BCF8C9D0AC0
TAN-001098,2021,EM.3256,2,8,10,178,163,341,TAN-001098,EM.3256,URISHO,,TZA,Arusha,Meru,Songoro,-3.3244079,36.8115031,0101000020E6100000238D6555DF6742402783482B63980AC0
TAN-001101,2021,EM.15412,4,1,5,84,73,157,TAN-001101,EM.15412,USHILI,,TZA,Arusha,Meru,Songoro,-3.325893562,36.79667575,0101000020E610000015E29178F9654240B62276156E9B0AC0
TAN-001104,2021,EM.7623,6,4,10,546,319,865,TAN-001104,EM.7623,ENGARUKA CHINI,,TZA,Arusha,Monduli,Engaruka,-3.000954706,36.00477852,0101000020E6100000C88F21959C004240DC60788AF40108C0
TAN-001107,2021,EM.605,7,8,15,682,438,1120,TAN-001107,EM.605,ENGARUKA JUU,,TZA,Arusha,Ngorongoro,Engaruka,-3.020969144,35.93353774,0101000020E6100000DD70272A7EF7414013A4DDDEF12A08C0
TAN-001110,2021,EM.6969,2,10,12,99,117,216,TAN-001110,EM.6969,MLIMANI,,TZA,Arusha,Monduli,Monduli juu,-3.284849563,36.45883666,0101000020E6100000F473E028BB3A42404CEB2A355F470AC0
TAN-001113,2021,EM.10898,2,8,10,249,249,498,TAN-001113,EM.10898,OLARASH,,TZA,Arusha,Monduli,Engutoto,-3.31180759,36.47540505,0101000020E6100000370D9B12DA3C42407E8E4DFA947E0AC0
TAN-001116,2021,EM.11101,1,12,13,387,316,703,TAN-001116,EM.11101,BARAKA,,TZA,Arusha,Monduli,Mto wa Mbu,-3.384210963,35.87638876,0101000020E61000001864C3812DF041401ECC8632DD120BC0
TAN-001119,2021,EM.7624,0,9,9,294,171,465,TAN-001119,EM.7624,ESILALEI,,TZA,Arusha,Monduli,Esilalei,-3.469845376,35.92413666,0101000020E61000000ADE2D1C4AF641404BC6E04A3EC20BC0
TAN-001122,2021,EM.12404,6,3,9,217,153,370,TAN-001122,EM.12404,EUNOTO,,TZA,Arusha,Monduli,Majengo,-3.339666868,35.86397725,0101000020E6100000779E78CE96EE41400CC24C43A3B70AC0
TAN-001125,2021,EM.10271,4,4,8,192,157,349,TAN-001125,EM.10271,OLTUKAI,,TZA,Manyara,Babati,Nkaiti,-3.657264661,35.89160049,0101000020E6100000E4D200F71FF24140027E7EF913420DC0
TAN-001128,2021,EM.6966,4,4,8,182,270,452,TAN-001128,EM.6966,LEPURKO,,TZA,Arusha,Monduli,Lepurko,-3.356095491,36.22645292,0101000020E6100000EABDC668FC1C4240D5C8C09748D90AC0
TAN-001131,2021,EM.5805,3,5,8,245,310,555,TAN-001131,EM.5805,LOSIMINGORI,,TZA,Arusha,Monduli,Lepurko,-3.372637,36.211013,0101000020E6100000F3035779021B4240863C821B29FB0AC0
TAN-001134,2021,EM.11106,3,8,11,323,385,708,TAN-001134,EM.11106,NAFCO,,TZA,Arusha,Monduli,Lolkisale,-3.721128433,36.40680217,0101000020E6100000C10BF01712344240179BDFFBDEC40DC0
TAN-001137,2021,EM.9137,7,1,8,263,270,533,TAN-001137,EM.9137,NDUKUSI,,TZA,Arusha,Monduli,Lolkisale,-3.79908,36.296107,0101000020E6100000EF8E8CD5E6254240F819170E84640EC0
TAN-001140,2021,EM.11104,2,7,9,137,114,251,TAN-001140,EM.11104,MIGOMBANI,,TZA,Arusha,Monduli,Majengo,-3.344681,35.849592,0101000020E6100000BC783F6EBFEC4140AD6BB41CE8C10AC0
TAN-001143,2021,EM.3029,3,13,16,463,493,956,TAN-001143,EM.3029,MAKUYUNI,,TZA,Arusha,Monduli,Makuyuni,-3.556080462,36.10074426,0101000020E6100000D8FA1A30E50C424067E03150DA720CC0
TAN-001151,2021,EM.2249,0,6,6,164,193,357,TAN-001151,EM.2249,MAKUYUNI,,TZA,Arusha,Monduli,Makuyuni,-3.556080462,36.10074426,0101000020E6100000D8FA1A30E50C424067E03150DA720CC0
TAN-001159,2021,EM.17263,4,4,8,369,317,686,TAN-001159,EM.17263,MAKUYUNI,,TZA,Arusha,Monduli,Makuyuni,-3.556080462,36.10074426,0101000020E6100000D8FA1A30E50C424067E03150DA720CC0
TAN-001167,2021,EM.3416,4,5,9,254,271,525,TAN-001167,EM.3416,MBUYUNI,,TZA,Arusha,Monduli,Makuyuni,-3.47753247,36.20404542,0101000020E610000038E60A291E1A4240C06C2B8BFCD10BC0
TAN-001170,2021,EM.9136,8,3,11,370,365,735,TAN-001170,EM.9136,NAITI,,TZA,Arusha,Monduli,Makuyuni,-3.509236661,36.17580445,0101000020E6100000E29E9DC2801642409A5AA7ABEA120CC0
TAN-001173,2021,EM.6967,4,4,8,261,373,634,TAN-001173,EM.6967,MESERANI CHINI,,TZA,Arusha,Monduli,Meserani,-3.524487377,36.4561577,0101000020E6100000C7A82160633A4240E0091B7026320CC0
TAN-001176,2021,EM.6968,3,12,15,288,469,757,TAN-001176,EM.6968,MESERANI JUU,,TZA,Arusha,Monduli,Meserani,-3.438436932,36.48028579,0101000020E61000004B6438017A3D42407C63E238EB810BC0
TAN-001179,2021,EM.15216,2,10,12,208,237,445,TAN-001179,EM.15216,SOKOINE,,TZA,Arusha,Monduli,Meserani,-3.582466,36.377197,0101000020E61000001D93C5FD47304240684128EFE3A80CC0
TAN-001181,2021,EM.10726,7,1,8,261,329,590,TAN-001181,EM.10726,KILIMATINDE,,TZA,Arusha,Monduli,Moita,-3.63819287,36.59318251,0101000020E61000002D818C67ED4B4240E68509DD041B0DC0
TAN-001184,2021,EM.6970,4,6,10,291,430,721,TAN-001184,EM.6970,MOITA BWAWANI,,TZA,Arusha,Monduli,Moita,-3.553533,36.567997,0101000020E6100000F19C2D20B4484240DC0DA2B5A26D0CC0
TAN-001187,2021,EM.6971,6,5,11,245,462,707,TAN-001187,EM.6971,MOITA KILORITI,,TZA,Arusha,Monduli,Moita,-3.553533,36.567997,0101000020E6100000F19C2D20B4484240DC0DA2B5A26D0CC0
TAN-001190,2021,EM.3257,4,9,13,245,252,497,TAN-001190,EM.3257,MAZOEZI,,TZA,Arusha,Monduli,Engutoto,-3.301807361,36.45269661,0101000020E6100000E37A67F6F13942401C7F49FA196A0AC0
TAN-001193,2021,EM.13522,1,11,12,174,191,365,TAN-001193,EM.13522,SINONI,,TZA,Arusha,Monduli,Monduli Mjini,-3.30125,36.44544,0101000020E6100000452A8C2D04394240295C8FC2F5680AC0
TAN-001196,2021,EM.6972,5,4,9,295,263,558,TAN-001196,EM.6972,MSWAKINI,,TZA,Arusha,Monduli,Mswakini,-3.644111225,36.01504154,0101000020E6100000D43095E1EC01424059E432C923270DC0
TAN-001199,2021,EM.11105,3,5,8,323,289,612,TAN-001199,EM.11105,MSWAKINI JUU,,TZA,Manyara,Monduli,Mswakini,-3.677433163,36.05629058,0101000020E610000021169C8734074240987C0214626B0DC0
TAN-001202,2021,EM.8968,6,1,7,264,239,503,TAN-001202,EM.8968,NAITOLIA,,TZA,Arusha,Monduli,Mswakini,-3.60316467,36.08970581,0101000020E6100000081BE07A7B0B424064059EFF47D30CC0
TAN-001205,2021,EM.10897,7,3,10,400,238,638,TAN-001205,EM.10897,MBAASH,,TZA,Arusha,Monduli,Selela,-3.207816102,36.05865816,0101000020E6100000F96B4F1C82074240AA600D7D9BA909C0
TAN-001208,2021,EM.4600,10,10,20,705,536,1241,TAN-001208,EM.4600,SELELA,,TZA,Arusha,Monduli,Selela,-3.228814683,35.91610269,0101000020E6100000F0A95ADA42F5414009A3E2CA9CD409C0
TAN-001211,2021,EM.10270,6,2,8,122,131,253,TAN-001211,EM.10270,ARKARIA,,TZA,Arusha,Monduli,Sepeko,-3.327400845,36.30287186,0101000020E610000013CA4E81C426424081A98F55849E0AC0
TAN-001214,2021,EM.6964,3,7,10,224,386,610,TAN-001214,EM.6964,ARKATANI,,TZA,Arusha,Monduli,Sepeko,-3.419004168,36.39245065,0101000020E6100000A085A9D23B324240DE9473DB1E5A0BC0
TAN-001217,2021,EM.5803,6,5,11,285,407,692,TAN-001217,EM.5803,LENDIKINYA,,TZA,Arusha,Monduli,Sepeko,-3.345724922,36.35467996,0101000020E6100000905F2627662D42409B378B6D0BC40AC0
TAN-001220,2021,EM.6974,5,1,6,306,182,488,TAN-001220,EM.6974,ALAILELAI,,TZA,Arusha,Ngorongoro,Alailelai,-2.981824633,35.67114622,0101000020E6100000F4DD8C1EE8D541403B2389DFC6DA07C0
TAN-001223,2021,EM.10901,2,2,4,368,159,527,TAN-001223,EM.10901,SENDUI,,TZA,Arusha,Ngorongoro,Alailelai,-2.940519178,35.72198283,0101000020E6100000D08FF1EE69DC41409B2A36EB2E8607C0
TAN-001226,2021,EM.659,4,6,10,513,245,758,TAN-001226,EM.659,ARASH,,TZA,Arusha,Ngorongoro,Arash,-2.400719656,35.47753457,0101000020E6100000026E50DA1FBD41403113CB81AC3403C0
TAN-001229,2021,EM.13047,6,2,8,184,107,291,TAN-001229,EM.13047,OLALAA,,TZA,Arusha,Ngorongoro,Arash,-2.486052402,35.50586319,0101000020E61000006EA60020C0C04140A3DB15716FE303C0
TAN-001232,2021,EM.11112,7,3,10,260,251,511,TAN-001232,EM.11112,RERA,,TZA,Arusha,Ngorongoro,Samunge,-2.183401872,35.70972946,0101000020E610000097DA396AD8DA4140161F92669B7701C0
TAN-001235,2021,EM.7626,5,1,6,395,213,608,TAN-001235,EM.7626,ENGUSEROSAMBU,,TZA,Arusha,Ngorongoro,Orgosorok,-2.006228392,35.63641914,0101000020E61000009A6CB02E76D14140C7929F78C10C00C0
TAN-001238,2021,EM.13046,5,2,7,277,174,451,TAN-001238,EM.13046,NAAN,,TZA,Arusha,Ngorongoro,Orgosorok,-2.042019493,35.74219671,0101000020E61000000C53424D00DF414005D6E1500E5600C0
TAN-001241,2021,EM.9583,3,6,9,211,213,424,TAN-001241,EM.9583,NG'ARWA,,TZA,Arusha,Ngorongoro,Orgosorok,-2.081713544,35.62813422,0101000020E61000000133BEB366D0414049F6386E59A700C0
TAN-001244,2021,EM.3030,4,2,6,161,150,311,TAN-001244,EM.3030,KAKESIO,,TZA,Arusha,Ngorongoro,Kakesio,-3.40305572,34.95928114,0101000020E61000001CFC71B9C97A414005EDFE4675390BC0
TAN-001247,2021,EM.7631,6,4,10,363,302,665,TAN-001247,EM.7631,OSINONI,,TZA,Arusha,Ngorongoro,Kakesio,-3.387323101,35.06700861,0101000020E61000000E40F6BC93884140103E9EDA3C190BC0
TAN-001250,2021,EM.3418,3,4,7,275,173,448,TAN-001250,EM.3418,MAALON,,TZA,Arusha,Ngorongoro,Maalon,-2.271362255,35.54895214,0101000020E6100000422F501044C6414021C054F9BF2B02C0
TAN-001252,2021,EM.2215,8,7,15,911,573,1484,TAN-001252,EM.2215,MALAMBO,,TZA,Arusha,Ngorongoro,Malambo,-2.539641958,35.57357852,0101000020E6100000468B5C056BC94140764689CD2F5104C0
TAN-001255,2021,EM.7625,4,4,8,452,249,701,TAN-001255,EM.7625,BULATI,,TZA,Arusha,Ngorongoro,Nainokanoka,-3.011297774,35.77394764,0101000020E6100000E64E5DB710E34140E2C78E49231708C0
TAN-001258,2021,EM.606,2,6,8,481,360,841,TAN-001258,EM.606,NAINOKANOKA,,TZA,Arusha,Ngorongoro,Nainokanoka,-3.05380076,35.66180278,0101000020E61000003E4018F4B5D441407D99C5172F6E08C0
TAN-001261,2021,EM.10727,2,2,4,300,153,453,TAN-001261,EM.10727,KAPENJIRO,,TZA,Arusha,Ngorongoro,Naiyobi,-2.953477203,35.86150072,0101000020E6100000B3F0D4A745EE4140B3EEE2A7B8A007C0
TAN-001264,2021,EM.7629,4,2,6,309,167,476,TAN-001264,EM.7629,NAIYOBI,,TZA,Arusha,Ngorongoro,Naiyobi,-2.86958463,35.81703919,0101000020E6100000D84C7CBD94E8414053A257C9E8F406C0
TAN-001267,2021,EM.9460,3,4,7,122,124,246,TAN-001267,EM.9460,MAKAO MAPYA,,TZA,Arusha,Ngorongoro,Ngorongoro,-3.213235,35.470965,0101000020E6100000C347C49448BC414086E63A8DB4B409C0
TAN-001270,2021,EM.1710,4,5,9,463,483,946,TAN-001270,EM.1710,MOKILAL,,TZA,Arusha,Ngorongoro,Ngorongoro,-3.213235,35.470965,0101000020E6100000C347C49448BC414086E63A8DB4B409C0
TAN-001273,2021,EM.11588,2,4,6,359,307,666,TAN-001273,EM.11588,OLOIROBI,,TZA,Arusha,Ngorongoro,Ngorongoro,-3.233528643,35.4300855,0101000020E6100000ED7DAA0A0DB7414001EAE24344DE09C0
TAN-001276,2021,EM.6976,4,3,7,447,268,715,TAN-001276,EM.6976,OLBALBAL,,TZA,Arusha,Ngorongoro,Olbalbal,-2.939961,35.400537,0101000020E610000042EBE1CB44B34140A71FD4450A8507C0
TAN-001279,2021,EM.14585,12,2,14,392,420,812,TAN-001279,EM.14585,JEMA,,TZA,Arusha,Ngorongoro,Oldonyo Sambu,-2.160859189,35.85477736,0101000020E6100000D647335869ED4140F020E08A704901C0
TAN-001282,2021,EM.7630,5,3,8,294,310,604,TAN-001282,EM.7630,OLOIPIRI,,TZA,Arusha,Ngorongoro,Oloipiri,-2.068843618,35.40749544,0101000020E6100000D90882CF28B441405AC9FEE1FD8C00C0
TAN-001285,2021,EM.10902,4,4,8,257,254,511,TAN-001285,EM.10902,SUKENYA,,TZA,Arusha,Ngorongoro,Oloipiri,-1.982959258,35.48374699,0101000020E610000052CBDE6BEBBD41401B91A67C33BAFFBF
TAN-001288,2021,EM.11110,6,1,7,261,211,472,TAN-001288,EM.11110,NJOROI,,TZA,Arusha,Ngorongoro,Soitsambu,-1.882631946,35.41324638,0101000020E61000002BA5E341E5B44140F098E7AC421FFEBF
TAN-001291,2021,EM.8058,2,7,9,616,450,1066,TAN-001291,EM.8058,OLOLOSOKWAN,,TZA,Arusha,Ngorongoro,Ololosokwan,-1.89999723,35.30010234,0101000020E610000065E0E3C069A641400F73D57E6366FEBF
TAN-001294,2021,EM.547,2,8,10,215,243,458,TAN-001294,EM.547,LOLIONDO,,TZA,Arusha,Ngorongoro,Orgosorok,-2.076174299,35.59503203,0101000020E6100000147672022ACC41407C015845019C00C0
TAN-001297,2021,EM.6978,2,5,7,160,176,336,TAN-001297,EM.6978,SAKALA,,TZA,Arusha,Ngorongoro,Orgosorok,-2.084781435,35.57663064,0101000020E6100000F5556608CFC94140481095E3A1AD00C0
TAN-001300,2021,EM.11587,4,2,6,180,184,364,TAN-001300,EM.11587,MASUSU,,TZA,Arusha,Ngorongoro,Pinyinyi,-2.292414728,35.77922585,0101000020E610000052F932ACBDE34140A6076D88DD5602C0
TAN-001303,2021,EM.10275,7,1,8,204,229,433,TAN-001303,EM.10275,PINYINYI,,TZA,Arusha,Ngorongoro,Pinyinyi,-2.335101453,35.91276447,0101000020E6100000E6CC5577D5F4414010D1ABAB49AE02C0
TAN-001306,2021,EM.1773,5,2,7,289,368,657,TAN-001306,EM.1773,SALE,,TZA,Arusha,Ngorongoro,Sale,-2.323023939,35.66079199,0101000020E61000001F41F9D494D441400BA42E938D9502C0
TAN-001309,2021,EM.10273,7,2,9,217,210,427,TAN-001309,EM.10273,MGONGO,,TZA,Arusha,Ngorongoro,Samunge,-2.184302468,35.64074115,0101000020E6100000C83956CE03D24140830E8592737901C0
TAN-001312,2021,EM.4046,3,5,8,165,164,329,TAN-001312,EM.4046,SAMUNGE,,TZA,Arusha,Ngorongoro,Samunge,-2.176221096,35.68262433,0101000020E6100000E766EA3B60D74140727B219BE66801C0
TAN-001315,2021,EM.9055,5,2,7,150,204,354,TAN-001315,EM.9055,YASIMDITO,,TZA,Arusha,Ngorongoro,Samunge,-2.219824976,35.67258697,0101000020E6100000D0EE6F5417D64140A41CD69833C201C0
TAN-001318,2021,EM.11586,4,2,6,559,303,862,TAN-001318,EM.11586,KIRTALO,,TZA,Arusha,Ngorongoro,Soitsambu,-1.987653128,35.33378678,0101000020E6100000F4F77386B9AA414069D5C85D6DCDFFBF
TAN-001321,2021,EM.13523,2,3,5,228,202,430,TAN-001321,EM.13523,MONDOROS,,TZA,Arusha,Ngorongoro,Soitsambu,-1.923363763,35.46213617,0101000020E61000006F392C4727BB41400B58C61419C6FEBF
TAN-001324,2021,EM.2216,3,5,8,244,251,495,TAN-001324,EM.2216,SOITSAMBU,,TZA,Arusha,Ngorongoro,Soitsambu,-1.93226507,35.39411753,0101000020E6100000AE10777172B2414081A62DC78EEAFEBF
TAN-001327,2021,EM.17010,8,35,43,810,851,1661,TAN-001327,EM.17010,BUGURUNI,,TZA,Dar es Salaam,Temeke,Vingunguti,-6.841369791,39.24500276,0101000020E61000009BD01C405C9F4340DABFE00A905D1BC0
TAN-001330,2021,EM.17011,5,26,31,590,564,1154,TAN-001330,EM.17011,BUGURUNI KISIWANI,,TZA,Dar es Salaam,Ilala,Buguruni,-6.834421624,39.24676407,0101000020E61000002A3D0DF7959F4340EF9E489F72561BC0
TAN-001333,2021,EM.13049,5,23,28,688,705,1393,TAN-001333,EM.13049,BUGURUNI MOTO MPYA,,TZA,Dar es Salaam,Ilala,Buguruni,-6.833862535,39.24330649,0101000020E61000002FBAC4AA249F434016BD740FE0551BC0
TAN-001336,2021,EM.12407,10,30,40,1056,1100,2156,TAN-001336,EM.12407,HEKIMA,,TZA,Dar es Salaam,Temeke,Buguruni,-6.840464835,39.2457173,0101000020E6100000DDC71BAA739F4340590D4FD0A25C1BC0
TAN-001339,2021,EM.5806,7,25,32,1091,1155,2246,TAN-001339,EM.5806,CHANIKA,,TZA,Dar es Salaam,Ilala,Chanika,-6.984370228,39.09094421,0101000020E6100000F4DA530FA48B43400DAAC1BFFEEF1BC0
TAN-001346,2021,EM.16018,10,3,13,416,437,853,TAN-001346,EM.16018,CHANIKA,,TZA,Dar es Salaam,Ilala,Chanika,-6.984370228,39.09094421,0101000020E6100000F4DA530FA48B43400DAAC1BFFEEF1BC0
TAN-001353,2021,EM.14587,10,21,31,1108,1191,2299,TAN-001353,EM.14587,LUKOONI,,TZA,Dar es Salaam,Ilala,Chanika,-7.010970688,39.09391654,0101000020E61000003FED0975058C4340CFB268E63B0B1CC0
TAN-001356,2021,EM.12413,5,29,34,1540,1508,3048,TAN-001356,EM.12413,TUNGINI,,TZA,Dar es Salaam,Ilala,Chanika,-6.985813713,39.09116995,0101000020E610000061D0F874AB8B43402122652679F11BC0
TAN-001359,2021,EM.11131,6,4,10,664,703,1367,TAN-001359,EM.11131,YONGWE,,TZA,Dar es Salaam,Ilala,Chanika,-6.999076208,39.12985209,0101000020E610000002EF47FE9E9043406A495ED50DFF1BC0
TAN-001362,2021,EM.10904,2,20,22,317,240,557,TAN-001362,EM.10904,GEREZANI,,TZA,Dar es Salaam,Ilala,Mchafukoge,-6.826018002,39.27983883,0101000020E61000001E803FC2D1A3434032FDC1A9D74D1BC0
TAN-001365,2021,EM.10034,8,6,14,141,196,337,TAN-001365,EM.10034,AL-FURQAAN,,TZA,Dar es Salaam,Ilala,Tabata,-6.832261744,39.22394666,0101000020E6100000CD5FBE48AA9C434088C4306C3C541BC0
TAN-001367,2021,EM.14988,0,9,9,147,139,286,TAN-001367,EM.14988,AMANA,,TZA,Dar es Salaam,Temeke,Ilala,-6.830849701,39.26161404,0101000020E6100000BAFCA0917CA14340DABE9643CA521BC0
TAN-001370,2021,EM.2452,2,23,25,365,334,699,TAN-001370,EM.2452,BOMA,,TZA,Dar es Salaam,Ilala,Ilala,-6.828659482,39.26364919,0101000020E61000005D55B441BFA1434059D77A1C8C501BC0
TAN-001373,2021,EM.476,2,25,27,680,651,1331,TAN-001373,EM.476,ILALA,,TZA,Dar es Salaam,Ilala,Ilala,-6.823941977,39.25630903,0101000020E61000007EC2FABBCEA04340FB101472B74B1BC0
TAN-001379,2021,EM.2617,2,10,12,207,172,379,TAN-001379,EM.2617,ILALA,,TZA,Dar es Salaam,Ilala,Ilala,-6.823941977,39.25630903,0101000020E61000007EC2FABBCEA04340FB101472B74B1BC0
TAN-001385,2021,EM.14994,23,17,40,460,458,918,TAN-001385,EM.14994,ILALA ISLAMIC,,TZA,Dar es Salaam,Temeke,Ilala,-6.832605519,39.2599316,0101000020E610000036994C7045A14340E34B8A8A96541BC0
TAN-001388,2021,EM.11610,3,14,17,380,364,744,TAN-001388,EM.11610,MKOANI,,TZA,Dar es Salaam,Ilala,Ilala,-6.827935566,39.26409227,0101000020E6100000616387C6CDA1434037A94C57CE4F1BC0
TAN-001391,2021,EM.3258,2,22,24,432,424,856,TAN-001391,EM.3258,MSIMBAZI,,TZA,Dar es Salaam,Ilala,Ilala,-6.824501802,39.25727548,0101000020E6100000D3542667EEA0434010554C334A4C1BC0
TAN-001392,2021,EM.1569,3,16,19,218,168,386,TAN-001392,EM.1569,LUMUMBA,,TZA,Dar es Salaam,Ilala,Gerezani,-6.823464537,39.28025033,0101000020E61000008805293EDFA34340B9529F493A4B1BC0
TAN-001395,2021,EM.9057,6,30,36,826,779,1605,TAN-001395,EM.9057,KIMANGA,,TZA,Dar es Salaam,Ilala,Kimanga,-6.830326374,39.20682478,0101000020E61000001B0D013C799A43405658B51341521BC0
TAN-001398,2021,EM.10728,2,38,40,933,907,1840,TAN-001398,EM.10728,KISUKURU,,TZA,Dar es Salaam,Ilala,Kimanga,-6.825577212,39.19847686,0101000020E61000003C5B93B0679943409173D71C644D1BC0
TAN-001401,2021,EM.11616,4,30,34,792,861,1653,TAN-001401,EM.11616,TUMAINI,,TZA,Dar es Salaam,Kinondoni,Kawe,-6.745411847,39.22655236,0101000020E61000000C84F0AAFF9C4340F0A9433E4DFB1AC0
TAN-001404,2021,EM.11597,3,38,41,924,918,1842,TAN-001404,EM.11597,KIBAGA,,TZA,Dar es Salaam,Ilala,Kinyerezi,-6.85336712,39.15134097,0101000020E6100000F35812245F934340DE86FF11D9691BC0
TAN-001407,2021,EM.2861,5,43,48,670,637,1307,TAN-001407,EM.2861,KINYEREZI,,TZA,Dar es Salaam,Ilala,Kinyerezi,-6.845513016,39.15818994,0101000020E6100000986D65913F944340D23F002ACE611BC0
TAN-001410,2021,EM.14590,20,21,41,409,413,822,TAN-001410,EM.14590,MICHAEL MAUSA,,TZA,Dar es Salaam,Ilala,Kinyerezi,-6.842133,39.150474,0101000020E6100000FC7266BB429343408B87F71C585E1BC0
TAN-001412,2021,EM.14997,7,7,14,121,132,253,TAN-001412,EM.14997,MOUNT PLEASANT,,TZA,Dar es Salaam,Ilala,Kinyerezi,-6.842133,39.150474,0101000020E6100000FC7266BB429343408B87F71C585E1BC0
TAN-001414,2021,EM.15223,8,6,14,170,141,311,TAN-001414,EM.15223,NYIWA,,TZA,Dar es Salaam,Ilala,Kinyerezi,-6.842133,39.150474,0101000020E6100000FC7266BB429343408B87F71C585E1BC0
TAN-001416,2021,EM.14333,20,9,29,253,262,515,TAN-001416,EM.14333,ZABIKHA,,TZA,Dar es Salaam,Ilala,Gongolamboto,-6.86093169,39.14438307,0101000020E610000080DFF9247B9243405F8FB21398711BC0
TAN-001418,2021,EM.14993,24,15,39,325,346,671,TAN-001418,EM.14993,HERITAGE,,TZA,Dar es Salaam,Ilala,Ukonga,-6.876603629,39.18446726,0101000020E6100000FD70889F9C9743408E70B861A4811BC0
TAN-001420,2021,EM.8059,4,25,29,656,628,1284,TAN-001420,EM.8059,KARAKATA,,TZA,Dar es Salaam,Ilala,Kipawa,-6.869471709,39.19388684,0101000020E61000005F76B248D198434015CFABCA567A1BC0
TAN-001423,2021,EM.12409,0,38,38,1099,1142,2241,TAN-001423,EM.12409,MAJANI YA CHAI,,TZA,Dar es Salaam,Ilala,Kipawa,-6.859765994,39.21382234,0101000020E610000023BACA875E9B434090C5297F66701BC0
TAN-001426,2021,EM.5807,6,36,42,1414,1362,2776,TAN-001426,EM.5807,MINAZI MIREFU,,TZA,Dar es Salaam,Ilala,Kipawa,-6.874670466,39.19359453,0101000020E61000006A849FB4C798434003FD589DA97F1BC0
TAN-001429,2021,EM.13050,4,23,27,579,625,1204,TAN-001429,EM.13050,MOGO,,TZA,Dar es Salaam,Ilala,Kipawa,-6.861995656,39.20379474,0101000020E6100000CBB22FF2159A43409B413FFDAE721BC0
TAN-001432,2021,EM.10907,2,26,28,854,1027,1881,TAN-001432,EM.10907,KISUTU,,TZA,Dar es Salaam,Ilala,Kisutu,-6.81671742,39.28572401,0101000020E6100000E550B79A92A44340DCE4439251441BC0
TAN-001435,2021,EM.181,4,30,34,645,646,1291,TAN-001435,EM.181,MTENDENI,,TZA,Dar es Salaam,Ilala,Mchafukoge,-6.8189519,39.2820557,0101000020E61000004093B3661AA44340FEFCAD539B461BC0
TAN-001438,2021,EM.12408,1,26,27,751,749,1500,TAN-001438,EM.12408,JITIHADA,,TZA,Dar es Salaam,Ilala,Kitunda,-6.90704655,39.19866341,0101000020E6100000516E78CD6D9943406BCC90CFD0A01BC0
TAN-001441,2021,EM.11596,3,28,31,635,615,1250,TAN-001441,EM.11596,KEREZANGE,,TZA,Dar es Salaam,Ilala,Kitunda,-6.9065754,39.20048265,0101000020E61000002C955C6AA9994340B76E394D55A01BC0
TAN-001444,2021,EM.3419,4,21,25,1177,1015,2192,TAN-001444,EM.3419,KITUNDA,,TZA,Dar es Salaam,Ilala,Kitunda,-6.906539755,39.19919726,0101000020E61000008F93BA4B7F994340D3FE20F54BA01BC0
TAN-001447,2021,EM.1711,7,36,43,1435,1319,2754,TAN-001447,EM.1711,BUNGE,,TZA,Dar es Salaam,,Kivukoni,-6.817828121,39.29531583,0101000020E6100000A9EBBBE8CCA54340CAC625BC74451BC0
TAN-001450,2021,EM.11119,7,50,57,1989,1926,3915,TAN-001450,EM.11119,KIVULE,,TZA,Dar es Salaam,Ilala,Kivule,-6.937825641,39.18663643,0101000020E6100000CD8BD9B3E3974340ECC7655D55C01BC0
TAN-001453,2021,EM.11592,4,17,21,521,602,1123,TAN-001453,EM.11592,BWAWANI,,TZA,Dar es Salaam,Temeke,Kiwalani,-6.867245887,39.235467,0101000020E6100000C4245CC8239E4340A505494E0F781BC0
TAN-001456,2021,EM.11599,1,18,19,491,504,995,TAN-001456,EM.11599,KIGILAGILA,,TZA,Dar es Salaam,Ilala,Kiwalani,-6.867033519,39.22561924,0101000020E6100000FE925C17E19C43402C9082A2D7771BC0
TAN-001459,2021,EM.7633,1,14,15,437,479,916,TAN-001459,EM.7633,KIWALANI,,TZA,Dar es Salaam,Ilala,Kiwalani,-6.86622906,39.22635748,0101000020E610000009E72A48F99C4340E62D2EC004771BC0
TAN-001462,2021,EM.11126,2,18,20,485,520,1005,TAN-001462,EM.11126,MWALE,,TZA,Dar es Salaam,Temeke,Yombo Vituka,-6.868042114,39.23508724,0101000020E6100000E2C0B356179E43400AB92C08E0781BC0
TAN-001465,2021,EM.11130,3,20,23,693,783,1476,TAN-001465,EM.11130,UMOJA,,TZA,Dar es Salaam,Temeke,Yombo Vituka,-6.868711103,39.23592028,0101000020E61000001688BFA2329E4340753A44678F791BC0
TAN-001468,2021,EM.2111,1,17,18,491,514,1005,TAN-001468,EM.2111,YOMBO,,TZA,Dar es Salaam,Temeke,Yombo Vituka,-6.868139153,39.2359663,0101000020E6100000A4BACA24349E43406F0C5A78F9781BC0
TAN-001471,2021,EM.4601,4,24,28,1071,1084,2155,TAN-001471,EM.4601,MAJOHE,,TZA,Dar es Salaam,Ilala,Majohe,-6.899534388,39.16141213,0101000020E61000008CC31527A99443407959E88A1F991BC0
TAN-001474,2021,EM.11609,8,22,30,1366,1369,2735,TAN-001474,EM.11609,MJI MPYA,,TZA,Dar es Salaam,Ilala,Majohe,-6.929423529,39.15735776,0101000020E6100000647C904C249443406BC034CDBAB71BC0
TAN-001477,2021,EM.11619,4,32,36,1450,1454,2904,TAN-001477,EM.11619,VIWEGE,,TZA,Dar es Salaam,Ilala,Majohe,-6.939002476,39.12974156,0101000020E6100000E690165F9B904340D12175DD89C11BC0
TAN-001480,2021,EM.256,3,18,21,196,188,384,TAN-001480,EM.256,MCHIKICHINI,,TZA,Dar es Salaam,Ilala,Mchikichini,-6.823086464,39.26938517,0101000020E6100000B59697367BA2434021A4922DD74A1BC0
TAN-001483,2021,EM.10905,8,2,10,234,264,498,TAN-001483,EM.10905,KIBOGA,,TZA,Pwani,Ilala,Msongola,-7.070496042,39.12185468,0101000020E610000076BB24EF988F4340BE8C4B1D30481CC0
TAN-001486,2021,EM.11601,8,13,21,1603,1606,3209,TAN-001486,EM.11601,KITONGA,,TZA,Dar es Salaam,Ilala,Msongola,-7.011432453,39.161439,0101000020E610000044A67C08AA94434003FEEEF2B40B1CC0
TAN-001489,2021,EM.11606,7,13,20,1224,1227,2451,TAN-001489,EM.11606,MBONDOLE,,TZA,Dar es Salaam,Ilala,Msongola,-6.975987584,39.14654622,0101000020E61000004F20CB06C292434006540A4A69E71BC0
TAN-001492,2021,EM.4602,7,19,26,1462,1475,2937,TAN-001492,EM.4602,MSONGOLA,,TZA,Dar es Salaam,Ilala,Msongola,-6.97373815,39.17940835,0101000020E61000008EF051DAF69643405D78149D1BE51BC0
TAN-001495,2021,EM.7634,8,10,18,847,869,1716,TAN-001495,EM.7634,MVUTI,,TZA,Pwani,Ilala,Msongola,-7.030515038,39.12722318,0101000020E610000052B262D9489043401BFC88553F1F1CC0
TAN-001498,2021,EM.11600,4,35,39,1220,1243,2463,TAN-001498,EM.11600,KIGOGO FRESH,,TZA,Dar es Salaam,Ilala,Pugu,-6.905336098,39.11963947,0101000020E6100000FB7A9D58508F43406931136D109F1BC0
TAN-001501,2021,EM.13526,6,9,15,104,150,254,TAN-001501,EM.13526,AFRICAN,,TZA,Dar es Salaam,Ilala,Segerea,-6.841841087,39.20429303,0101000020E61000004C532546269A4340596004970B5E1BC0
TAN-001503,2021,EM.11603,3,26,29,592,610,1202,TAN-001503,EM.11603,MAENDELEO,,TZA,Dar es Salaam,Ilala,Segerea,-6.849015353,39.17954204,0101000020E61000005007CB3BFB96434062BFDB4764651BC0
TAN-001506,2021,EM.10035,2,31,33,630,638,1268,TAN-001506,EM.10035,SEGEREA,,TZA,Dar es Salaam,Ilala,Segerea,-6.839674875,39.1914292,0101000020E6100000EEBF84C0809843407097FDBAD35B1BC0
TAN-001509,2021,EM.10419,92,38,130,702,713,1415,TAN-001509,EM.10419,TUSIIME,,TZA,Dar es Salaam,Ilala,Segerea,-6.843420206,39.1918399,0101000020E6100000B148B8358E984340EB38E68BA95F1BC0
TAN-001511,2021,EM.11125,3,23,26,470,467,937,TAN-001511,EM.11125,MTAMBANI,,TZA,Dar es Salaam,Kinondoni,Hananasifu,-6.790105185,39.26472317,0101000020E61000005DD2E672E2A143406EE6675511291BC0
TAN-001514,2021,EM.304,8,72,80,731,732,1463,TAN-001514,EM.304,TABATA,,TZA,Dar es Salaam,Ilala,Tabata,-6.832929302,39.2278749,0101000020E6100000268A35012B9D434064E13F6BEB541BC0
TAN-001517,2021,EM.11615,1,22,23,641,662,1303,TAN-001517,EM.11615,TABATA JICA,,TZA,Dar es Salaam,Ilala,Tabata,-6.833073234,39.22956741,0101000020E6100000B6160377629D4340D4CF5C2611551BC0
TAN-001520,2021,EM.10903,3,29,32,795,819,1614,TAN-001520,EM.10903,AMANI,,TZA,Dar es Salaam,Ilala,Ukonga,-6.879830074,39.1679225,0101000020E61000009CE1067C7E9543401378C72CF2841BC0
TAN-001523,2021,EM.11116,4,19,23,682,654,1336,TAN-001523,EM.11116,JUHUDI,,TZA,Dar es Salaam,Ilala,Ukonga,-6.884891522,39.17970936,0101000020E610000017FE5FB7009743409CFDCD00218A1BC0
TAN-011066,2021,EM.13276,8,1,9,356,301,657,TAN-011066,EM.13276,MASABA,,TZA,Mara,Bunda,Salama,-1.8682788,34.1371728,0101000020E61000004CF3D8E08E11414045F69C4F78E4FDBF
TAN-001526,2021,EM.11612,3,38,41,1045,613,1658,TAN-001526,EM.11612,MZAMBARAUNI,,TZA,Dar es Salaam,Ilala,Ukonga,-6.880158183,39.16761329,0101000020E610000065762F5A74954340C92ACD2F48851BC0
TAN-001529,2021,EM.13531,5,22,27,576,582,1158,TAN-001529,EM.13531,UKONGA,,TZA,Dar es Salaam,Ilala,Ukonga,-6.884059333,39.17960948,0101000020E610000067538571FD96434094D58BD946891BC0
TAN-001532,2021,EM.11617,1,20,21,511,488,999,TAN-001532,EM.11617,UKONGA JICA,,TZA,Dar es Salaam,Ilala,Ukonga,-6.88579617,39.17956488,0101000020E61000001A8E63FBFB964340C949B4260E8B1BC0
TAN-001535,2021,EM.11120,2,25,27,1659,1547,3206,TAN-001535,EM.11120,KOMBO,,TZA,Dar es Salaam,Ilala,Vingunguti,-6.843691778,39.23244156,0101000020E6100000323721A5C09D434008A8C9BCF05F1BC0
TAN-001538,2021,EM.11122,5,21,26,843,838,1681,TAN-001538,EM.11122,MIEMBENI,,TZA,Dar es Salaam,Ilala,Vingunguti,-6.851764181,39.22522287,0101000020E61000000B7B5E1AD49C4340683295DE34681BC0
TAN-001541,2021,EM.11124,5,30,35,1070,1161,2231,TAN-001541,EM.11124,MTAKUJA,,TZA,Dar es Salaam,Ilala,Vingunguti,-6.843131018,39.23226027,0101000020E6100000B2E75BB4BA9D43407736D2BC5D5F1BC0
TAN-001544,2021,EM.809,6,30,36,827,820,1647,TAN-001544,EM.809,KIBADA,,TZA,Dar es Salaam,Temeke,Kibada,-6.899730416,39.33951456,0101000020E6100000A0DB8D3675AB4340F3BE1FEE52991BC0
TAN-001547,2021,EM.7635,6,23,29,657,698,1355,TAN-001547,EM.7635,MIZIMBINI,,TZA,Dar es Salaam,Temeke,Kibada,-6.883248142,39.34060711,0101000020E6100000171E870399AB43403192703372881BC0
TAN-001550,2021,EM.1180,9,18,27,401,431,832,TAN-001550,EM.1180,KIGAMBONI,,TZA,Dar es Salaam,Temeke,Kigamboni,-6.828249491,39.31386049,0101000020E61000003D079E942CA84340371873A220501BC0
TAN-001553,2021,EM.14334,2,18,20,404,404,808,TAN-001553,EM.14334,KIVUKONI,,TZA,Dar es Salaam,Temeke,Kigamboni,-6.828104922,39.31360699,0101000020E61000006AEC1A4624A84340269696BCFA4F1BC0
TAN-001556,2021,EM.11622,4,19,23,928,995,1923,TAN-001556,EM.11622,RAHALEO,,TZA,Dar es Salaam,Temeke,Kigamboni,-6.826981152,39.31679197,0101000020E61000008864A7A38CA843405EFEA825D44E1BC0
TAN-001559,2021,EM.4049,6,34,40,1226,1083,2309,TAN-001559,EM.4049,UFUKONI,,TZA,Dar es Salaam,Temeke,Kigamboni,-6.829697999,39.31206041,0101000020E6100000C6A97398F1A74340EC0B2D5A9C511BC0
TAN-001562,2021,EM.3031,6,8,14,503,452,955,TAN-001562,EM.3031,KIMBIJI,,TZA,Dar es Salaam,Temeke,Kimbiji,-6.988170818,39.52702608,0101000020E61000009ADE309775C34340B0AF080DE3F31BC0
TAN-001565,2021,EM.5808,5,29,34,1261,1296,2557,TAN-001565,EM.5808,KIBUGUMO,,TZA,Dar es Salaam,Temeke,Mjimwema,-6.87131632,39.37733716,0101000020E6100000FDE184954CB04340FA7B6B583A7C1BC0
TAN-001568,2021,EM.10732,9,24,33,713,642,1355,TAN-001568,EM.10732,MAWENI,,TZA,Dar es Salaam,Temeke,Mjimwema,-6.840401134,39.34887604,0101000020E6100000391457F8A7AC43408C34681D925C1BC0
TAN-001571,2021,EM.2349,5,26,31,1233,1194,2427,TAN-001571,EM.2349,MJIMWEMA,,TZA,Dar es Salaam,Temeke,Mjimwema,-6.850437428,39.35513739,0101000020E610000083D1592475AD4340A937B211D9661BC0
TAN-001579,2021,EM.12878,4,18,22,590,659,1249,TAN-001579,EM.12878,MJIMWEMA,,TZA,Dar es Salaam,Temeke,Mjimwema,-6.850437428,39.35513739,0101000020E610000083D1592475AD4340A937B211D9661BC0
TAN-001587,2021,EM.12415,4,18,22,834,834,1668,TAN-001587,EM.12415,UNGINDONI,,TZA,Dar es Salaam,Temeke,Mjimwema,-6.875120463,39.34691002,0101000020E610000001472B8C67AC4340DE9422941F801BC0
TAN-001590,2021,EM.11620,7,1,8,108,106,214,TAN-001590,EM.11620,KICHANGANI,,TZA,Dar es Salaam,Temeke,Pemba Mnazi,-7.097778,39.473412,0101000020E610000059C4B0C398BC4340BA1281EA1F641CC0
TAN-001593,2021,EM.14592,15,6,21,167,178,345,TAN-001593,EM.14592,DAARUL-ARQAM,,TZA,Dar es Salaam,Temeke,Somangila,-6.951944586,39.46530184,0101000020E6100000C9C8BC028FBB4340A4E5C18FCACE1BC0
TAN-001595,2021,EM.2112,5,20,25,563,547,1110,TAN-001595,EM.2112,GEZAULOLE,,TZA,Dar es Salaam,Temeke,Somangila,-6.869149508,39.41601966,0101000020E6100000B618D92140B5434028C72054027A1BC0
TAN-001598,2021,EM.4603,4,9,13,490,438,928,TAN-001598,EM.4603,GOMVU,,TZA,Dar es Salaam,Temeke,Somangila,-6.940911359,39.48095152,0101000020E610000045AEC4D18FBD4340135C6D447EC31BC0
TAN-001601,2021,EM.8969,5,11,16,496,433,929,TAN-001601,EM.8969,MBUTU,,TZA,Dar es Salaam,Temeke,Somangila,-6.910208,39.451966,0101000020E6100000B4739A05DAB94340F33AE2900DA41BC0
TAN-001604,2021,EM.5809,7,19,26,790,681,1471,TAN-001604,EM.5809,MWONGOZO,,TZA,Dar es Salaam,Temeke,Somangila,-6.910208,39.451966,0101000020E6100000B4739A05DAB94340F33AE2900DA41BC0
TAN-001607,2021,EM.12414,12,13,25,419,398,817,TAN-001607,EM.12414,FRAY LUIS AMIGO,,TZA,Dar es Salaam,Temeke,Tungi,-6.837215726,39.32482652,0101000020E6100000022358EA93A94340B4774B144F591BC0
TAN-001609,2021,EM.13532,3,3,6,31,33,64,TAN-001609,EM.13532,MAHENGE,,TZA,Dar es Salaam,Temeke,Tungi,-6.836259431,39.32099751,0101000020E610000012C6477216A943405E776C6454581BC0
TAN-001611,2021,EM.4605,5,23,28,749,783,1532,TAN-001611,EM.4605,TUNGI,,TZA,Dar es Salaam,Temeke,Tungi,-6.835915713,39.32096108,0101000020E6100000C5F1AE4015A94340AA30E649FA571BC0
TAN-001623,2021,EM.4290,6,21,27,497,509,1006,TAN-001623,EM.4290,TUNGI,,TZA,Dar es Salaam,Temeke,Tungi,-6.835915713,39.32096108,0101000020E6100000C5F1AE4015A94340AA30E649FA571BC0
TAN-001635,2021,EM.14999,10,2,12,195,173,368,TAN-001635,EM.14999,BETHANIA,,TZA,Dar es Salaam,Temeke,Vijibweni,-6.862351,39.318896,0101000020E6100000A1698995D1A843400CB1FA230C731BC0
TAN-001638,2021,EM.8277,7,20,27,1045,1023,2068,TAN-001638,EM.8277,KISIWANI,,TZA,Dar es Salaam,Kinondoni,Makumbusho,-6.793153627,39.25189202,0101000020E6100000FE026AFF3DA04340D5ACE276302C1BC0
TAN-001641,2021,EM.4606,3,29,32,1244,1288,2532,TAN-001641,EM.4606,VIJIBWENI,,TZA,,,,-6.813330031,39.35701053,0101000020E6100000BC566385B2AD4340A8FF6F96D9401BC0
TAN-001644,2021,EM.1713,8,33,41,1046,1029,2075,TAN-001644,EM.1713,BOKO,,TZA,Dar es Salaam,Kinondoni,Bunju,-6.63579136,39.15519079,0101000020E61000005FD8B34ADD934340111EE9E30C8B1AC0
TAN-001647,2021,EM.14595,12,8,20,196,176,372,TAN-001647,EM.14595,DAYSTAR,,TZA,Dar es Salaam,Kinondoni,Bunju,-6.63770514,39.16743189,0101000020E6100000C2ED7D686E954340162A8393028D1AC0
TAN-001650,2021,EM.13901,4,7,11,62,78,140,TAN-001650,EM.13901,GOSHENI,,TZA,Dar es Salaam,Kinondoni,Bunju,-6.640026372,39.11628515,0101000020E610000057218A6EE28E43402745C112638F1AC0
TAN-001652,2021,EM.14596,20,12,32,294,318,612,TAN-001652,EM.14596,MOGA,,TZA,Pwani,Kinondoni,Bunju,-6.609692249,39.11309322,0101000020E610000051A6B0D6798E43409A51382A53701AC0
TAN-001655,2021,EM.11145,4,44,48,1132,1214,2346,TAN-001655,EM.11145,MTAMBANI,,TZA,Dar es Salaam,Kinondoni,Bunju,-6.636008781,39.15417761,0101000020E6100000DB5C8817BC9343408F74C9E2458B1AC0
TAN-001658,2021,EM.4607,2,13,15,374,325,699,TAN-001658,EM.4607,HANANASIF,,TZA,Dar es Salaam,Ilala,Hananasifu,-6.799419415,39.27028487,0101000020E610000076A0D2B198A243408DD9CC009B321BC0
TAN-001661,2021,EM.11142,7,8,15,423,454,877,TAN-001661,EM.11142,MKUNGUNI,,TZA,Dar es Salaam,Ilala,Hananasifu,-6.798785928,39.27077321,0101000020E61000009ECA50B2A8A243405F0F35F0F4311BC0
TAN-001664,2021,EM.15001,7,5,12,205,238,443,TAN-001664,EM.15001,BAJEVIRO,,TZA,Dar es Salaam,Kinondoni,Kawe,-6.722615745,39.22669447,0101000020E6100000C26A0B53049D43401166C161F5E31AC0
TAN-001667,2021,EM.10913,20,58,78,495,498,993,TAN-001667,EM.10913,FEZA,,TZA,Dar es Salaam,Kinondoni,Mbezi Juu,-6.718298358,39.20847479,0101000020E6100000948B4A4DAF9A4340A285D19A89DF1AC0
TAN-001669,2021,EM.3421,2,21,23,685,659,1344,TAN-001669,EM.3421,LUGALO,,TZA,Dar es Salaam,Kinondoni,Kawe,-6.752327382,39.22773254,0101000020E61000007BC40157269D43401B4DF61B62021BC0
TAN-001672,2021,EM.10559,2,10,12,289,277,566,TAN-001672,EM.10559,MBEZI BEACH,,TZA,Dar es Salaam,Kinondoni,Kawe,-6.718111111,39.2297251,0101000020E610000001C9CFA1679D4340918EE28458DF1AC0
TAN-001675,2021,EM.11141,0,19,19,748,612,1360,TAN-001675,EM.11141,MIRAMBO,,TZA,Dar es Salaam,Kinondoni,Mikocheni,-6.755948938,39.23048673,0101000020E610000089C1D396809D4340AD9F787A17061BC0
TAN-001678,2021,EM.14337,13,15,28,224,245,469,TAN-001678,EM.14337,RIGHTWAY,,TZA,Dar es Salaam,Kinondoni,Kawe,-6.718261263,39.21395741,0101000020E6100000EB57D7F4629B43404D466AE17FDF1AC0
TAN-001680,2021,EM.11152,2,14,16,390,410,800,TAN-001680,EM.11152,TUMAINI,,TZA,Dar es Salaam,Kinondoni,Kawe,-6.742255782,39.22647321,0101000020E6100000612FFB12FD9C4340DFD353E611F81AC0
TAN-001683,2021,EM.11153,3,11,14,307,306,613,TAN-001683,EM.11153,UKWAMANI,,TZA,Dar es Salaam,Kinondoni,Kawe,-6.736799831,39.22762573,0101000020E6100000000A05D7229D4340915FA7A77BF21AC0
TAN-001686,2021,EM.11631,9,3,12,94,90,184,TAN-001686,EM.11631,VALENTINE,,TZA,Dar es Salaam,Kinondoni,Kawe,-6.723823366,39.21372615,0101000020E61000006646E4605B9B4340DB33D4F331E51AC0
TAN-001689,2021,EM.13052,11,12,23,243,189,432,TAN-001689,EM.13052,GONZAGA,,TZA,Dar es Salaam,Ilala,Tabata,-6.821729688,39.23612166,0101000020E6100000E3C90B3C399E4340FA72E08173491BC0
TAN-001692,2021,EM.4050,5,27,32,655,771,1426,TAN-001692,EM.4050,KIGOGO,,TZA,Dar es Salaam,Ilala,Kigogo,-6.819956772,39.2499777,0101000020E61000005A1DEF44FF9F4340B37E7FBFA2471BC0
TAN-001695,2021,EM.11137,5,13,18,415,381,796,TAN-001695,EM.11137,MAPINDUZI,,TZA,Dar es Salaam,Ilala,Mchikichini,-6.819468435,39.25905559,0101000020E6100000B072CBBB28A143409BB7C1BB22471BC0
TAN-001698,2021,EM.11143,7,21,28,760,765,1525,TAN-001698,EM.11143,MKWAWA,,TZA,Dar es Salaam,Ilala,Kigogo,-6.819746208,39.25081647,0101000020E61000005DF90BC11AA043402285C98C6B471BC0
TAN-001701,2021,EM.8205,1,10,11,261,235,496,TAN-001701,EM.8205,MAPAMBANO,,TZA,Dar es Salaam,Kinondoni,Kijitonyama,-6.777817,39.236235,0101000020E6100000D595CFF23C9E43406117450F7C1C1BC0
TAN-001704,2021,EM.11147,3,7,10,321,341,662,TAN-001704,EM.11147,MWANGAZA,,TZA,Dar es Salaam,Ilala,Gongolamboto,-6.887992239,39.15998713,0101000020E6100000C19051757A944340616D66D64D8D1BC0
TAN-001707,2021,EM.4609,3,9,12,126,104,230,TAN-001707,EM.4609,MWENGE,,TZA,Dar es Salaam,Kinondoni,Kijitonyama,-6.771705142,39.2327317,0101000020E61000000A1F0027CA9D43401E2E6CDF39161BC0
TAN-001710,2021,EM.11630,1,7,8,195,155,350,TAN-001710,EM.11630,SHEKILANGO,,TZA,Dar es Salaam,Kinondoni,Kijitonyama,-6.777005274,39.23208369,0101000020E6100000153E19EBB49D43401C994245A71B1BC0
TAN-001713,2021,EM.7636,4,12,16,403,413,816,TAN-001713,EM.7636,KUMBUKUMBU,,TZA,Dar es Salaam,Kinondoni,Kinondoni,-6.782810201,39.26666304,0101000020E61000000CEDB50322A24340AC1451FF98211BC0
TAN-001716,2021,EM.11625,12,7,19,152,129,281,TAN-001716,EM.11625,MTAMBANI ISLAMIC,,TZA,Dar es Salaam,Ilala,Tabata,-6.833037429,39.22877095,0101000020E61000002E43D25D489D43407F9887C307551BC0
TAN-001719,2021,EM.13540,10,8,18,128,144,272,TAN-001719,EM.13540,SUNRAY,,TZA,Dar es Salaam,Kinondoni,Kinondoni,-6.784856,39.270134,0101000020E6100000D2C43BC093A243400B47904AB1231BC0
TAN-001721,2021,EM.10912,6,15,21,283,256,539,TAN-001721,EM.10912,BAHARI,,TZA,Dar es Salaam,Kinondoni,Kunduchi,-6.651921641,39.19457114,0101000020E6100000D18505B5E79843403F99BE58919B1AC0
TAN-001723,2021,EM.13534,4,8,12,88,79,167,TAN-001723,EM.13534,BRIGHT HOPE,,TZA,Dar es Salaam,Kinondoni,Kunduchi,-6.665487939,39.20896822,0101000020E6100000D4667B78BF9A4340BE8C97AB75A91AC0
TAN-001726,2021,EM.13536,12,3,15,215,180,395,TAN-001726,EM.13536,EDUCATION PLUS,,TZA,Dar es Salaam,Kinondoni,Kunduchi,-6.647823685,39.17715133,0101000020E61000007E6510E5AC964340C99892175F971AC0
TAN-001729,2021,EM.13053,5,12,17,402,402,804,TAN-001729,EM.13053,JANGWANI BEACH,,TZA,Dar es Salaam,Kinondoni,Kawe,-6.70322871,39.2216005,0101000020E61000007D23BA675D9C4340AB3BDC2F1BD01AC0
TAN-001732,2021,EM.2350,6,42,48,1223,1215,2438,TAN-001732,EM.2350,KUNDUCHI,,TZA,Dar es Salaam,Kinondoni,Kunduchi,-6.663849659,39.20646432,0101000020E61000006F183F6C6D9A434088767B34C8A71AC0
TAN-001735,2021,EM.14771,14,6,20,170,161,331,TAN-001735,EM.14771,MAKINI,,TZA,Dar es Salaam,Kinondoni,Kunduchi,-6.660464,39.199716,0101000020E6100000753E3C4B90994340CBBDC0AC50A41AC0
TAN-001738,2021,EM.4055,4,23,27,854,956,1810,TAN-001738,EM.4055,MTAKUJA,,TZA,Dar es Salaam,Kinondoni,Kunduchi,-6.673078978,39.20993285,0101000020E6100000948D6214DF9A4340598A989D3BB11AC0
TAN-001741,2021,EM.11146,6,27,33,943,965,1908,TAN-001741,EM.11146,MTONGANI,,TZA,Dar es Salaam,Kinondoni,Kunduchi,-6.673144406,39.21079542,0101000020E6100000F6852558FB9A4340790565C44CB11AC0
TAN-001744,2021,EM.11628,3,36,39,1010,1058,2068,TAN-001744,EM.11628,PIUS MSEKWA,,TZA,Dar es Salaam,Kinondoni,Kunduchi,-6.667548222,39.19171635,0101000020E6100000E3AD4E298A984340C7F8D7C291AB1AC0
TAN-001747,2021,EM.10278,3,16,19,313,281,594,TAN-001747,EM.10278,PWANI,,TZA,Dar es Salaam,Kinondoni,Kunduchi,-6.660606912,39.19735195,0101000020E6100000A28625D442994340CA346A2376A41AC0
TAN-001750,2021,EM.13906,14,2,16,224,184,408,TAN-001750,EM.13906,SKY,,TZA,Dar es Salaam,Kinondoni,Kunduchi,-6.660464,39.199716,0101000020E6100000753E3C4B90994340CBBDC0AC50A41AC0
TAN-001753,2021,EM.2352,5,15,20,517,472,989,TAN-001753,EM.2352,UNUNIO,,TZA,Dar es Salaam,Kinondoni,Kunduchi,-6.634826414,39.17999958,0101000020E610000066B2EA390A9743405D117BEF0F8A1AC0
TAN-001756,2021,EM.14770,7,4,11,67,61,128,TAN-001756,EM.14770,GODENI,,TZA,Dar es Salaam,Kinondoni,Mabwepande,-6.661751,39.089046,0101000020E610000079EBFCDB658B43409561DC0DA2A51AC0
TAN-001759,2021,EM.4052,6,18,24,847,825,1672,TAN-001759,EM.4052,MABWEPANDE,,TZA,Dar es Salaam,Kinondoni,Mabwepande,-6.657799299,39.08278772,0101000020E610000088F4BAC9988A43409B25B22396A11AC0
TAN-001762,2021,EM.17036,16,40,56,845,827,1672,TAN-001762,EM.17036,MBOPO,,TZA,Dar es Salaam,Kinondoni,Mbezi,-6.697226516,39.10825081,0101000020E6100000965B9C29DB8D4340FF7E70BFF5C91AC0
TAN-001765,2021,EM.13902,8,5,13,100,94,194,TAN-001765,EM.13902,HAZINA,,TZA,Dar es Salaam,Kinondoni,Magomeni,-6.804004,39.261582,0101000020E6100000739CDB847BA14340A96917D34C371BC0
TAN-001768,2021,EM.8204,2,12,14,360,355,715,TAN-001768,EM.8204,CHANGANYIKENI,,TZA,Dar es Salaam,Kinondoni,Makongo,-6.766331001,39.19052431,0101000020E61000008045C01963984340E3D2EC12B9101BC0
TAN-001771,2021,EM.13054,2,12,14,285,312,597,TAN-001771,EM.13054,LONDA,,TZA,Dar es Salaam,Kinondoni,Makongo,-6.745918337,39.2092211,0101000020E61000000B11CBC1C79A4340599B3B04D2FB1AC0
TAN-001774,2021,EM.6981,2,19,21,440,434,874,TAN-001774,EM.6981,MAKONGO,,TZA,Dar es Salaam,Kinondoni,Makongo,-6.762420008,39.1983594,0101000020E610000056ED3FD76399434049B4A0D4B70C1BC0
TAN-001777,2021,EM.6982,4,16,20,416,374,790,TAN-001777,EM.6982,MAKUMBUSHO,,TZA,Dar es Salaam,Kinondoni,Makumbusho,-6.783362874,39.24990884,0101000020E610000002644B03FD9F43401AEC92E029221BC0
TAN-001780,2021,EM.11139,3,24,27,784,757,1541,TAN-001780,EM.11139,MCHANGANI,,TZA,Dar es Salaam,Kinondoni,Makumbusho,-6.792947804,39.25187276,0101000020E6100000047AD95D3DA04340C7755682FA2B1BC0
TAN-001783,2021,EM.11140,1,12,13,380,358,738,TAN-001783,EM.11140,MINAZINI,,TZA,Dar es Salaam,Kinondoni,Makumbusho,-6.788247312,39.25094464,0101000020E610000008F436F41EA04340B5CCA84D2A271BC0
TAN-001786,2021,EM.11154,2,9,11,338,317,655,TAN-001786,EM.11154,VICTORIA,,TZA,Dar es Salaam,Kinondoni,Makumbusho,-6.782501202,39.2499946,0101000020E61000009B96B3D2FF9F4340C9AEBEFE47211BC0
TAN-001789,2021,EM.11138,6,21,27,646,677,1323,TAN-001789,EM.11138,MBEZI JUU,,TZA,Dar es Salaam,Kinondoni,Mbezi Juu,-6.736809407,39.21339058,0101000020E6100000EF2FED61509B4340F5CC492A7EF21AC0
TAN-001792,2021,EM.10915,4,25,29,791,799,1590,TAN-001792,EM.10915,MBEZI NDUMBWI,,TZA,Dar es Salaam,Kinondoni,Msigani,-6.784898251,39.11823394,0101000020E6100000E3C92C4A228F43402FEEFA5DBC231BC0
TAN-001795,2021,EM.11136,4,16,20,422,474,896,TAN-001795,EM.11136,KIUMBAGENI,,TZA,Pwani,Kinondoni,Mbweni,-6.578552232,39.13136439,0101000020E61000005A745F8CD090434008DF0DFF6F501AC0
TAN-001798,2021,EM.4054,4,15,19,461,424,885,TAN-001798,EM.4054,MBWENI,,TZA,Pwani,Kinondoni,Mbweni,-6.57964668,39.13254463,0101000020E6100000228EF138F7904340045737E68E511AC0
TAN-001801,2021,EM.13900,6,10,16,136,106,242,TAN-001801,EM.13900,EAST AFRICA,,TZA,Dar es Salaam,Kinondoni,Kijitonyama,-6.775918823,39.23403785,0101000020E610000059E3C7F3F49D4340128BC4768A1A1BC0
TAN-001804,2021,EM.13903,7,16,23,437,454,891,TAN-001804,EM.13903,MIKOCHENI,,TZA,Dar es Salaam,Kinondoni,Mikocheni,-6.773409999,39.25656831,0101000020E6100000EB51FA3AD7A04340E66A70CAF8171BC0
TAN-001807,2021,EM.13541,16,29,45,422,398,820,TAN-001807,EM.13541,SUNRISE,,TZA,Dar es Salaam,Kinondoni,Mwananyamala,-6.778871787,39.26168546,0101000020E6100000F544BEE87EA14340B0C4D390901D1BC0
TAN-001809,2021,EM.8206,5,7,12,145,170,315,TAN-001809,EM.8206,USHINDI,,TZA,Dar es Salaam,Kinondoni,Mikocheni,-6.75740809,39.24061695,0101000020E6100000808E4589CC9E4340721A81FC95071BC0
TAN-001812,2021,EM.11623,5,7,12,37,39,76,TAN-001812,EM.11623,AL-IRSHAAD,,TZA,Dar es Salaam,Kinondoni,Msasani,-6.76196,39.274488,0101000020E61000007D923B6C22A34340CE70033E3F0C1BC0
TAN-001815,2021,EM.11133,3,7,10,227,195,422,TAN-001815,EM.11133,BONGOYO,,TZA,Dar es Salaam,Kinondoni,Msasani,-6.779410373,39.27947003,0101000020E6100000F48787ACC5A34340EBCAB8C01D1E1BC0
TAN-001818,2021,EM.4053,6,17,23,423,420,843,TAN-001818,EM.4053,MBUYUNI,,TZA,Dar es Salaam,Kinondoni,Msasani,-6.78056913,39.27376351,0101000020E6100000E324C5AE0AA34340FC7796834D1F1BC0
TAN-001821,2021,EM.14772,11,6,17,205,211,416,TAN-001821,EM.14772,MSASANI ISLAMIC,,TZA,Dar es Salaam,Kinondoni,Msasani,-6.76196,39.274488,0101000020E61000007D923B6C22A34340CE70033E3F0C1BC0
TAN-001823,2021,EM.810,13,16,29,564,662,1226,TAN-001823,EM.810,OYSTERBAY,,TZA,Dar es Salaam,Kinondoni,Msasani,-6.779572158,39.27889921,0101000020E610000045EA24F8B2A34340B7EDED29481E1BC0
TAN-001826,2021,EM.12417,7,7,14,152,149,301,TAN-001826,EM.12417,PENINSULA,,TZA,Dar es Salaam,Kinondoni,Msasani,-6.76196,39.274488,0101000020E61000007D923B6C22A34340CE70033E3F0C1BC0
TAN-001828,2021,EM.1866,2,13,15,304,286,590,TAN-001828,EM.1866,MIKUMI,,TZA,Dar es Salaam,Kinondoni,Mzimuni,-6.814428578,39.25789341,0101000020E6100000E7E6B8A602A143404BC0AD90F9411BC0
TAN-001831,2021,EM.10916,4,7,11,261,227,488,TAN-001831,EM.10916,MZIMUNI,,TZA,Dar es Salaam,Kinondoni,Mzimuni,-6.81460162,39.25879144,0101000020E610000073A4F11320A14340ABAC54ED26421BC0
TAN-001834,2021,EM.11150,5,13,18,467,434,901,TAN-001834,EM.11150,NDUGUMBI,,TZA,Dar es Salaam,Kinondoni,Mzimuni,-6.805293439,39.25110503,0101000020E610000005DBA93524A04340E4C0E0D79E381BC0
TAN-001837,2021,EM.2351,4,11,15,408,420,828,TAN-001837,EM.2351,TURIANI,,TZA,Dar es Salaam,Kinondoni,Ndugumbi,-6.804942724,39.25637424,0101000020E61000001E2B00DFD0A04340C0EECAE742381BC0
TAN-001840,2021,EM.11134,7,19,26,786,820,1606,TAN-001840,EM.11134,HEKIMA,,TZA,Dar es Salaam,Kinondoni,Ndugumbi,-6.798953231,39.24245891,0101000020E61000007389C0E4089F4340D1B6B8CB20321BC0
TAN-001843,2021,EM.4057,4,32,36,936,954,1890,TAN-001843,EM.4057,TANDALE,,TZA,Dar es Salaam,Kinondoni,Ndugumbi,-6.799687047,39.24322591,0101000020E6100000B37ED006229F434069994729E1321BC0
TAN-001846,2021,EM.14593,1,23,24,701,716,1417,TAN-001846,EM.14593,BENACO,,TZA,Dar es Salaam,Kinondoni,Wazo,-6.679624,39.157443,0101000020E6100000F8FD9B17279443408B4E965AEFB71AC0
TAN-001848,2021,EM.13537,12,12,24,153,144,297,TAN-001848,EM.13537,KELAND,,TZA,Dar es Salaam,Kinondoni,Wazo,-6.701656888,39.18610377,0101000020E6100000FAE7923FD29743407DE4AB247FCE1AC0
TAN-001850,2021,EM.9233,6,36,42,1046,1075,2121,TAN-001850,EM.9233,KISAUKE,,TZA,Dar es Salaam,Kinondoni,Wazo,-6.704131096,39.13612919,0101000020E61000005D8A69AE6C914340A3AAF5BD07D11AC0
TAN-001853,2021,EM.11149,6,33,39,1068,1108,2176,TAN-001853,EM.11149,NAKASANGWE,,TZA,Dar es Salaam,Kinondoni,Wazo,-6.679624,39.157443,0101000020E6100000F8FD9B17279443408B4E965AEFB71AC0
TAN-001856,2021,EM.11629,2,42,44,1049,1156,2205,TAN-001856,EM.11629,SALASALA,,TZA,Dar es Salaam,Kinondoni,Wazo,-6.699926911,39.20167265,0101000020E6100000B31FCE68D09943405A57E1A3B9CC1AC0
TAN-001859,2021,EM.12419,4,32,36,1123,967,2090,TAN-001859,EM.12419,WAZO HILL,,TZA,Dar es Salaam,Kinondoni,Wazo,-6.677116843,39.16498482,0101000020E6100000441EFB381E954340E805211E5EB51AC0
TAN-001862,2021,EM.2757,7,19,26,729,709,1438,TAN-001862,EM.2757,AZIMIO,,TZA,Dar es Salaam,Temeke,Mtoni,-6.869165022,39.26775233,0101000020E61000008F6356B545A24340BB444165067A1BC0
TAN-001865,2021,EM.11645,6,17,23,281,262,543,TAN-001865,EM.11645,MJIMPYA,,TZA,Dar es Salaam,Temeke,Azimio,-6.867175129,39.26693779,0101000020E6100000EA0E7B042BA243409CD6CBC1FC771BC0
TAN-001868,2021,EM.11646,6,31,37,1046,1145,2191,TAN-001868,EM.11646,MORINGE,,TZA,Dar es Salaam,Temeke,Azimio,-6.878059136,39.26369443,0101000020E6100000627E34BDC0A14340CB4B24EF21831BC0
TAN-001871,2021,EM.3034,7,17,24,768,783,1551,TAN-001871,EM.3034,SOKOINE,,TZA,Dar es Salaam,Temeke,Azimio,-6.877525139,39.26421911,0101000020E6100000D0368AEED1A1434001B135F395821BC0
TAN-001874,2021,EM.11649,4,22,26,457,453,910,TAN-001874,EM.11649,TWIGA,,TZA,Dar es Salaam,Kinondoni,Wazo,-6.67667215,39.16973575,0101000020E6100000249BABE6B9954340BE74498BE9B41AC0
TAN-001877,2021,EM.11632,16,54,70,2217,2145,4362,TAN-001877,EM.11632,AMANI,,TZA,Dar es Salaam,Temeke,Buza,-6.89189883,39.22964989,0101000020E61000003D8AE72A659D43403DC348ED4D911BC0
TAN-001880,2021,EM.2453,7,55,62,2209,2197,4406,TAN-001880,EM.2453,BUZA,,TZA,Dar es Salaam,Temeke,Buza,-6.891708648,39.23010238,0101000020E6100000776AAAFE739D4340AAE162121C911BC0
TAN-001883,2021,EM.9587,16,59,75,2840,2834,5674,TAN-001883,EM.9587,CHAMAZI,,TZA,Dar es Salaam,Temeke,Chamazi,-6.954795915,39.22768868,0101000020E61000007C2215E7249D43401A1E3505B6D11BC0
TAN-001886,2021,EM.14776,19,6,25,397,424,821,TAN-001886,EM.14776,FAHARI,,TZA,Dar es Salaam,Temeke,Mianzini,-6.921266864,39.27163897,0101000020E61000000C3CD610C5A24340EC12AF9460AF1BC0
TAN-001889,2021,EM.4615,17,82,99,3606,3689,7295,TAN-001889,EM.4615,MBANDE,,TZA,Dar es Salaam,Temeke,Chamazi,-6.982193541,39.21337043,0101000020E61000004864E5B84F9B4340EFBFC324C4ED1BC0
TAN-001892,2021,EM.11640,7,37,44,1985,2044,4029,TAN-001892,EM.11640,KILAMBA,,TZA,Dar es Salaam,Temeke,Charambe,-6.925019149,39.25855158,0101000020E6100000EE36DA3718A14340D783443838B31BC0
TAN-001895,2021,EM.11638,9,28,37,1351,1379,2730,TAN-001895,EM.11638,JUHUDI,,TZA,Dar es Salaam,Temeke,Kiburugwa,-6.901917518,39.25566056,0101000020E6100000DD09387CB9A043407BFF0D44909B1BC0
TAN-001898,2021,EM.10561,8,41,49,1687,1737,3424,TAN-001898,EM.10561,KIBURUGWA,,TZA,Dar es Salaam,Temeke,Charambe,-6.914140817,39.25363796,0101000020E6100000B19C6B3577A043409CD0C38714A81BC0
TAN-001901,2021,EM.11642,8,43,51,1982,2004,3986,TAN-001901,EM.11642,KINGUGI,,TZA,Dar es Salaam,Temeke,Kiburugwa,-6.911869254,39.25330333,0101000020E6100000B128573E6CA04340B5A1C00DC1A51BC0
TAN-001904,2021,EM.11633,8,28,36,851,904,1755,TAN-001904,EM.11633,BWAWANI,,TZA,Dar es Salaam,Temeke,Kijichi,-6.886524982,39.28151244,0101000020E6100000CC9B819908A44340A31B7334CD8B1BC0
TAN-001907,2021,EM.11636,14,23,37,394,393,787,TAN-001907,EM.11636,HOLY CROSS,,TZA,Dar es Salaam,Temeke,Kijichi,-6.880043154,39.28985398,0101000020E6100000935B6AEF19A54340A9FE55082A851BC0
TAN-001909,2021,EM.4616,9,40,49,1190,1172,2362,TAN-001909,EM.4616,MTONI KIJICHI,,TZA,Dar es Salaam,Temeke,Kijichi,-6.889145463,39.28169581,0101000020E610000064AFB99B0EA443401AE3F3257C8E1BC0
TAN-001912,2021,EM.12422,4,19,23,988,958,1946,TAN-001912,EM.12422,KIGUNGA,,TZA,Dar es Salaam,Temeke,Makangarawe,-6.877769447,39.24714842,0101000020E61000003C94368FA29F43400A2C71FED5821BC0
TAN-001915,2021,EM.10562,7,28,35,1140,1129,2269,TAN-001915,EM.10562,KILAKALA,,TZA,Dar es Salaam,Temeke,Makangarawe,-6.878058915,39.24714857,0101000020E61000009BB37890A29F4340848B4FE021831BC0
TAN-001921,2021,EM.769,1,26,27,220,210,430,TAN-001921,EM.769,KILAKALA,,TZA,Dar es Salaam,Temeke,Makangarawe,-6.878058915,39.24714857,0101000020E61000009BB37890A29F4340848B4FE021831BC0
TAN-001927,2021,EM.12423,6,15,21,339,288,627,TAN-001927,EM.12423,KIUNGANI,,TZA,Dar es Salaam,Temeke,Kurasini,-6.857522173,39.28440979,0101000020E61000002A5B3D8A67A44340F984E24A1A6E1BC0
TAN-001930,2021,EM.11159,6,9,15,176,160,336,TAN-001930,EM.11159,MIVINJENI,,TZA,Dar es Salaam,Temeke,Kurasini,-6.839527275,39.28881582,0101000020E6100000D5BBB2EAF7A4434066E6B809AD5B1BC0
TAN-001933,2021,EM.11637,7,32,39,1367,1445,2812,TAN-001933,EM.11637,JITIHADA,,TZA,Dar es Salaam,Temeke,Makangarawe,-6.87841839,39.25168348,0101000020E610000090C50D2A37A043401805451C80831BC0
TAN-001936,2021,EM.11157,11,37,48,1503,1591,3094,TAN-001936,EM.11157,KIZINGA,,TZA,Dar es Salaam,Temeke,Mbagala Kuu,-6.914805395,39.27636043,0101000020E6100000166150C75FA34340DEEAD6BEC2A81BC0
TAN-001939,2021,EM.305,8,46,54,1685,1670,3355,TAN-001939,EM.305,MBAGALA,,TZA,Dar es Salaam,Temeke,Mbagala,-6.905366564,39.26748414,0101000020E6100000D5BF98EB3CA243406B169D69189F1BC0
TAN-001942,2021,EM.12424,7,34,41,1436,1468,2904,TAN-001942,EM.12424,MBAGALA ANNEX,,TZA,Dar es Salaam,Temeke,Mbagala,-6.906199626,39.265982,0101000020E61000008FA9BBB20BA243400D4575CBF29F1BC0
TAN-001945,2021,EM.11639,9,39,48,1206,1326,2532,TAN-001945,EM.11639,KIBONDEMAJI,,TZA,Dar es Salaam,Temeke,Mbagala Kuu,-6.914715183,39.27593494,0101000020E6100000D68F0BD651A34340028FD018ABA81BC0
TAN-001948,2021,EM.10563,4,33,37,1150,1158,2308,TAN-001948,EM.10563,KIZUIANI,,TZA,Dar es Salaam,Temeke,Mbagala Kuu,-6.914805395,39.27636043,0101000020E6100000166150C75FA34340DEEAD6BEC2A81BC0
TAN-001951,2021,EM.11644,11,42,53,1863,1899,3762,TAN-001951,EM.11644,MAENDELEO,,TZA,Dar es Salaam,Temeke,Mbagala Kuu,-6.902768876,39.285713,0101000020E610000062855B3E92A443401411B9716F9C1BC0
TAN-001954,2021,EM.4614,20,56,76,2113,2272,4385,TAN-001954,EM.4614,MBAGALA KUU,,TZA,Dar es Salaam,Temeke,Mbagala Kuu,-6.902959229,39.28506139,0101000020E61000007FB341E47CA443409CB41858A19C1BC0
TAN-001957,2021,EM.11635,4,5,9,82,74,156,TAN-001957,EM.11635,HEKIMA,,TZA,Dar es Salaam,Temeke,Mianzini,-6.945164378,39.2447111,0101000020E6100000EEBB7DB1529F4340AF6AB32BD9C71BC0
TAN-001959,2021,EM.10917,16,62,78,2415,2538,4953,TAN-001959,EM.10917,MAJIMATITU,,TZA,Dar es Salaam,Temeke,Mianzini,-6.936734414,39.24794475,0101000020E6100000823B50A7BC9F4340C0AB644E37BF1BC0
TAN-001962,2021,EM.11155,3,15,18,354,349,703,TAN-001962,EM.11155,BARRACKS,,TZA,Dar es Salaam,Temeke,Miburani,-6.848081271,39.27928146,0101000020E6100000218AB07EBFA34340322EAD6A6F641BC0
TAN-001965,2021,EM.4058,10,28,38,477,448,925,TAN-001965,EM.4058,CHANG'OMBE,,TZA,Dar es Salaam,Temeke,Miburani,-6.849234577,39.27146225,0101000020E61000009EEC6646BFA24340BB63BBBF9D651BC0
TAN-001968,2021,EM.1867,3,16,19,287,256,543,TAN-001968,EM.1867,KIBASILA,,TZA,Dar es Salaam,Temeke,Miburani,-6.856081224,39.26933513,0101000020E6100000C881D39279A24340D8326F8EA06C1BC0
TAN-001971,2021,EM.11643,7,17,24,147,179,326,TAN-001971,EM.11643,LIKWATI,,TZA,Dar es Salaam,Temeke,Miburani,-6.861149345,39.26911573,0101000020E610000037985D6272A24340BFFC4622D1711BC0
TAN-001974,2021,EM.660,7,17,24,594,582,1176,TAN-001974,EM.660,MGULANI,,TZA,Dar es Salaam,Temeke,Miburani,-6.851140788,39.27580773,0101000020E6100000C02AEEAA4DA34340B601637391671BC0
TAN-001977,2021,EM.13059,4,22,26,492,469,961,TAN-001977,EM.13059,TAIFA,,TZA,Dar es Salaam,Temeke,Miburani,-6.850525756,39.27565351,0101000020E6100000223D3D9D48A34340E4B34939F0661BC0
TAN-001980,2021,EM.11652,27,24,51,486,504,990,TAN-001980,EM.11652,YEMENI,,TZA,Dar es Salaam,Temeke,Miburani,-6.850147439,39.27282944,0101000020E6100000CF173913ECA24340F321DD0C8D661BC0
TAN-001982,2021,EM.11156,7,23,30,1039,1094,2133,TAN-001982,EM.11156,BOKORANI,,TZA,Dar es Salaam,Temeke,Mtoni,-6.87525804,39.27422858,0101000020E6100000405D0FEC19A34340BA71C5A443801BC0
TAN-001985,2021,EM.1868,5,41,46,1237,1349,2586,TAN-001985,EM.1868,MTONI,,TZA,Dar es Salaam,Temeke,Mtoni,-6.875450874,39.274811,0101000020E610000060CAC0012DA34340A656A43176801BC0
TAN-001988,2021,EM.3033,3,23,26,724,707,1431,TAN-001988,EM.3033,MTONI SABASABA,,TZA,Dar es Salaam,Temeke,Mtoni,-6.867619531,39.28075912,0101000020E6100000143A33EAEFA343403D101C4171781BC0
TAN-001991,2021,EM.10918,11,40,51,1393,1368,2761,TAN-001991,EM.10918,SANDALI,,TZA,Dar es Salaam,Temeke,Sandali,-6.855807165,39.2448291,0101000020E6100000F7CD588F569F43400E6EA5B6586C1BC0
TAN-001994,2021,EM.14341,7,32,39,1313,1293,2606,TAN-001994,EM.14341,VETERINARY,,TZA,Dar es Salaam,Temeke,Sandali,-6.85956971,39.24591714,0101000020E6100000B6E97C367A9F43402D54C40A33701BC0
TAN-001997,2021,EM.13543,4,4,8,61,72,133,TAN-001997,EM.13543,GOODSHEPHERD,,TZA,Dar es Salaam,Temeke,Tandika,-6.860613629,39.25625394,0101000020E6100000B5E2D9EDCCA043400130FCB244711BC0
TAN-001999,2021,EM.4612,5,22,27,802,796,1598,TAN-001999,EM.4612,MABATINI,,TZA,Dar es Salaam,Temeke,Tandika,-6.86179898,39.255621,0101000020E6100000DD955D30B8A04340FC4D8B6E7B721BC0
TAN-002002,2021,EM.4617,5,34,39,719,750,1469,TAN-002002,EM.4617,TANDIKA,,TZA,Dar es Salaam,Temeke,Tandika,-6.866916194,39.26076478,0101000020E61000003A0685BD60A143404269F6E0B8771BC0
TAN-002005,2021,EM.14124,5,14,19,387,376,763,TAN-002005,EM.14124,TANDIKA,,TZA,Dar es Salaam,Temeke,Tandika,-6.866916194,39.26076478,0101000020E61000003A0685BD60A143404269F6E0B8771BC0
TAN-002008,2021,EM.17038,1,16,17,391,372,763,TAN-002008,EM.17038,BAHATI,,TZA,Dar es Salaam,Kinondoni,Kunduchi,-6.664940242,39.20670233,0101000020E6100000B2ADD138759A4340C0BC4418E6A81AC0
TAN-002011,2021,EM.4613,5,13,18,270,272,542,TAN-002011,EM.4613,MADENGE,,TZA,Dar es Salaam,Temeke,Temeke,-6.858047264,39.25980757,0101000020E61000009D33DC5F41A14340883525F1A36E1BC0
TAN-002014,2021,EM.12427,3,16,19,312,276,588,TAN-002014,EM.12427,RUVUMA,,TZA,Dar es Salaam,Temeke,Temeke,-6.856971097,39.2582085,0101000020E61000004D86E3F90CA14340D1EDCCD4896D1BC0
TAN-002017,2021,EM.1181,10,16,26,361,348,709,TAN-002017,EM.1181,TEMEKE,,TZA,Dar es Salaam,Temeke,Temeke,-6.854845469,39.2609553,0101000020E6100000E39BB7FB66A1434083F4519C5C6B1BC0
TAN-002022,2021,EM.14116,5,2,7,185,171,356,TAN-002022,EM.14116,TEMEKE,,TZA,Dar es Salaam,Temeke,Temeke,-6.854845469,39.2609553,0101000020E6100000E39BB7FB66A1434083F4519C5C6B1BC0
TAN-002027,2021,EM.12430,1,13,14,348,333,681,TAN-002027,EM.12430,UMOJA,,TZA,Dar es Salaam,Temeke,Mtoni,-6.868837763,39.27016998,0101000020E6100000013B0EEE94A243408E75469BB0791BC0
TAN-002030,2021,EM.4611,7,39,46,1385,1401,2786,TAN-002030,EM.4611,KONGOWE,,TZA,Dar es Salaam,Temeke,Toangoma,-6.946010728,39.28129418,0101000020E6100000DCD39B7201A443405BB34909B7C81BC0
